name,system_DC_capacity_W,address,orientation,num_outputs,last_output,system_id,panel,inverter,distance_km,latitude,longitude,country
OostaSolar,20475,Finland,W,1355,Yesterday,78594,Longi LR4-72HBD-455M,Fronius Symo 8.2kW+15kW,15.8,67.95541,23.684297,Finland
Far out north,5985,Sweden,S,2752,Yesterday,45811,JA-Solar,Fronius Symo 5.0-3-M,23.1,67.841931,20.275183,Sweden
Balettstigen,4480,Sweden,SE,3106,Yesterday,37400,JA Solar JAM6(L) 60-280/PR,Fronius Symo 4.5-S,14.6,65.793294,21.740582,Sweden
OuluGolf,28000,Finland,SW,792,78 weeks ago,74925,Eurener PEPV 280,SMA Sunny Tripower 25000TL-30,8.6,64.979006,25.704693,Finland
Jäkälätie,3360,Finland,SW,1965,Yesterday,74922,Heckert ,Steca 5003,19.0,64.894502,25.566077,Finland
Holmsunds Elbilsbränslen,5400,Sweden,SE,1362,157 weeks ago,65073,IBC MonoSol 300SX,Fronius Symo,13.3,63.694969,20.362699,Sweden
Husbyn 121,13750,Sweden,SE,2851,Yesterday,46742,CSUN,SolarEdge SE12.5k,24.1,63.353761,19.153033,Sweden
Loke 110,10400,Sweden,SW,2665,47 weeks ago,27698,ReneSola JC260M-24/Bbv,SMA Sunny Tripower 10000TL-10,15.2,62.989254,14.801256,Sweden
Haapala Ranchi,3360,Finland,SW,894,137 weeks ago,67095,Na,ABB Trio 7.5,24.1,62.898229,22.075193,Finland
Tomi's Home,4690,Finland,EW,1473,Yesterday,25916,Trinasolar,Fronius,23.0,62.842162,27.698991,Finland
Myren-Steivang 1,10360,Norway,S,624,Yesterday,91485,.,Growatt,24.2,62.267863,10.743685,Norway
Hormikuja Kauhajoki,5700,Finland,S,1556,70 weeks ago,62654,Astronergy,Fronius Symo Hybrid 5.0-3-S,9.1,62.410173,22.182223,Finland
Oikari,4320,Finland,S,651,171 weeks ago,67205,Trisolar,-,12.9,62.402599,25.522925,Finland
Antinmutka 16,4400,Finland,S,1836,Yesterday,65728,csun 275-60p,Fronius Symo 6.0-3-m,16.6,62.158969,25.750248,Finland
Oksakuja,6840,Finland,SE,399,Yesterday,94490,,Fronius 6.0,16.6,62.15492,25.758133,Finland
Umhvørvisstovan,11200,Faroe Islands,N,1308,Yesterday,79735,Hyundai HIS-S280RG,Fronius Symo 10.0-3-M,5.6,61.99721,-6.783092,Faroe Islands
Mutalasolar 1,7000,Finland,S,3211,Yesterday,36063,Solarwatt Blue 60p,SMA Sunny Tripower 7000TL,20.2,61.647694,23.712327,Finland
kk10,6400,Finland,S,1729,Yesterday,69405,Vikram,Fronius Symo,15.2,61.477629,23.932117,Finland
Jäkälä,8200,Finland,W,384,Yesterday,94864,Astroenergy,Growatt MOD 7000TL3-X,16.9,61.46157,23.822351,Finland
Kangasala,2340,Finland,SW,1796,15 days ago,58652,SunRise,3 x MPP PIP5048MK,10.4,61.46183,24.223846,Finland
Uusitalo,5200,Finland,SE,2098,Yesterday,61243,Vikram ELDORA VSPB.60.AAA.03,Fronius Symo 5.0-3-M,16.4,61.378562,23.778052,Finland
Aurinko_sepi,4240,Finland,S,763,77 weeks ago,54715,Trinasolar,Fronius symo,21.4,60.98818,24.301555,Finland
Aurinko_Makinen,2650,Finland,SW,2284,Yesterday,54610,Trinasolar,Fronius symo ,23.3,60.979937,24.418606,Finland
Varme & Rorteknik AB,10860,Sweden,SE,1837,Yesterday,66798,Dmegc Solitek LG Viessmann,Solaredge SE6K,3.8,60.932513,16.543976,Sweden
HamppuFarmi,18090,Finland,S,1677,Today,72708,HT Solar Half-cell monocrystal,Fronius Symo,6.3,60.693615,22.950036,Finland
Koti,5200,Finland,E,4437,Today,5683,GEF,Fronius,5.4,60.704727,24.743099,Finland
Per Ohman,3360,Sweden,S,1799,Today,36114,blge,ABB trio 5.8,12.0,60.466464,15.461595,Sweden
Strandbro,11250,Sweden,SW,2695,163 weeks ago,19529,ET-P660WW,SMA STP10000TL-10,14.9,60.423402,15.443248,Sweden
Grasbo1,3480,Sweden,SE,3380,Today,31155,Schutten Solar STP6-290/72,SMA SB 3000TL-21,23.2,60.12988,17.115852,Sweden
Orvik-Solproduktion,7420,Sweden,S,421,24 weeks ago,50986,PPAM Paladium,SMA 6000TL-20,10.0,60.285574,18.330147,Sweden
Sjevik,9600,Finland,S,688,Yesterday,88680,Longi LR6-60HPH-320M,Sungrow SG6KTL-MT,8.8,60.308821,20.057387,Finland
Lunken,12000,Finland,SW,3479,58 weeks ago,20216,Jinko  JKM250P,SMA Tripower 12000 TL,20.2,60.13798,19.892947,Finland
Herskapshuset #2,4355,Norway,S,2251,Today,58143,Recom Black Panther Mono 72,Fronius Primo,23.9,59.916022,10.848646,Norway
Herskapshuset #1,4690,Norway,S,2252,Today,58127,Recom Black Panther Mono 72,Fronius Primo,23.9,59.916011,10.848624,Norway
Herskapshuset (Total),9045,Norway,S,2235,Today,58151,Recom Black Panther Mono 72,Fronius Primo,23.9,59.915989,10.848667,Norway
P33 10.8kw,10830,Norway,S,1118,Today,76698,BISOL 325w Mono Project,Fronius Symo 6.0.3,22.4,60.007912,11.148376,Norway
PV P33 4.4kw,4410,Norway,W,2934,Today,32271,Solarfennel PS6A-245,SMA Sunny Boy 3600 TL,22.5,60.009049,11.145169,Norway
Fronius 6.4kw,6500,Norway,S,1375,Today,78323,BISOL 325w Mono Project,Fronius Symo 6.0.3,22.5,60.008828,11.145201,Norway
RAPPENS,8800,Sweden,S,1484,Today,74719,China,SolarEdge/SE10K,14.4,60.043783,14.724137,Sweden
Rosengatan28,3000,Sweden,S,2738,162 weeks ago,21926,CSUN250-60P,Samil SolarRiver 3000TL,20.0,59.932786,16.57057,Sweden
Skänklåtsvägen 13,12505,Sweden,SW,1118,Today,71345,Astroenergy,Fronius,8.2,60.030516,17.54564,Sweden
Kungsfjällen,12960,Sweden,N,2279,Today,57432,Jinko,SolarEdge,24.5,60.079647,17.982935,Sweden
Ekenäs Energi BIO 4,12720,Finland,S,1429,16 weeks ago,67423,SaloSolar 265wP,SolarEdge SE10K,5.6,60.058919,23.630315,Finland
lider,2120,Finland,S,410,Today,98358,salo solar,Fronius Symo 3.0-3-S,13.8,60.06158,23.817576,Finland
Henrisol,5810,Finland,S,2518,Today,53719,JaSolar 4BB 335 HC,fronius symo 6.0-3-M,14.8,60.000041,23.417375,Finland
Knut - 500WSolar,795,Norway,N,2231,Today,27635,Yingli YL265P-29b & ND-RJ270W,MARS ROCK GTI1000,15.6,59.752008,10.00714,Norway
Nordstrand,4800,Norway,S,1114,26 weeks ago,74688,Solitek Standard M.60 300W,Ginlong Solis 3P6K-4G-LV,7.1,59.881687,10.805473,Norway
SMA-5000,4290,Norway,S,1051,Today,82425,Sunpower,SMA 4005,20.1,59.714868,10.834923,Norway
Sexmansgarden,18900,Sweden,S,3660,Today,30395,Eoplly 156P/60-240W,Fronius Symo 17.5-3-M,20.3,59.745994,14.990601,Sweden
Sebeks solcell 3 Ransta,2400,Sweden,E,3805,Today,19720,SPD,SMA Sunny Boy 2100TL,18.6,59.810787,16.637314,Sweden
Sebeks solcell 2 Ransta,4880,Sweden,S,3829,5 weeks ago,19719,ZnShine ZX/P6 & STP 250-20/Wd,SMA Sunny Boy 4000TL-20,18.7,59.810758,16.636955,Sweden
Solkalas Uppsala,15900,Sweden,S,1544,30 weeks ago,70316,JA Solar JAM60S02,Fronius Symo 12.5-3-M,9.6,59.863631,17.625901,Sweden
Sveddis,19470,Sweden,S,1666,Today,71322,LG,SolarEdge,12.4,59.801173,17.651918,Sweden
Fox cub street,11160,Sweden,SW,1112,Today,83462,Longi Solar Mono 360,Fronius Symo,15.3,59.751,17.786548,Sweden
Port Of Hanko,53460,Finland,S,1829,Today,67596,SaloSolar 5BB SS330P,SolarEdge SE25K-RW000BNN4,7.7,59.819699,22.946232,Finland
Huset,16290,Norway,S,822,3 days ago,86582,Ja Solar,Growatt,15.4,59.542324,5.348625,Norway
Barkarö bygata 251,1920,Sweden,SE,758,Yesterday,67097,Q-cell,Steca,14.0,59.60596,16.54129,Sweden
Bylehyddan,6500,Sweden,S,2622,Yesterday,51240,Amerisolar,Solar Edge,6.7,59.678338,18.153245,Sweden
OakVillage1,9360,Sweden,S,814,Yesterday,86937,Trina Solar,Sungrow,14.3,59.54463,18.054829,Sweden
iZONNET,5500,Sweden,S,2769,Yesterday,50504,Trinasolar TSM-DD05A,SolarEdge SE5K,19.2,59.628539,17.704383,Sweden
Fluffy's Hideout,13650,Sweden,S,647,Yesterday,92916,SOLARWATT Vision 60M,SMA STP 15000tl-30 ,19.5,59.500318,18.088704,Sweden
Sjökarby  Åkersberga,13250,Sweden,S,4149,Yesterday,29092,Yingli YL265C-30b,Solaredge 15E,24.2,59.504996,18.307311,Sweden
GOSVAGEN61,10230,Sweden,SE,1469,Yesterday,92619,JAM60S10-330,Growatt 10000 TL3,22.3,59.333956,13.506929,Sweden
PUNDET2,7930,Sweden,S,1809,Yesterday,67884,Longi Solar LR6-60PB,SolarEdge SE7K,9.0,59.402553,15.8542,Sweden
Stensater,9280,Sweden,SE,2714,Yesterday,98710,LG320N1C-G4,STP 8000TL-20 448,16.9,59.39608,16.309553,Sweden
Klyvarestigen 29A,11840,Sweden,E,1490,Yesterday,75802,Jinko 370,Solaredge s10,19.0,59.342336,17.67696,Sweden
Falkv,12600,Sweden,SE,1974,Yesterday,64092,Axis,Solaredge,11.7,59.427814,18.077714,Sweden
ToobTäby,12915,Sweden,S,2117,Yesterday,59492,LG 315N1K-A5,SolarEdge,12.4,59.445951,18.057909,Sweden
Rotemansbacken 2,14700,Sweden,SE,1737,Yesterday,69768,SunPower X21 Black 350W,Solaredge SE17K,22.6,59.384448,17.904207,Sweden
NorthCross,6120,Estonia,SE,756,56 weeks ago,83345,ZN Shine ZXP6-60-225/P,StecaGrid 5503,13.6,59.46538,24.440074,Estonia
Valdek (selfuse/10kwh battery),3840,Estonia,SE,958,Yesterday,82346,MiaSole MS120GG,SOFAR 2200TL-G3,18.9,59.403118,24.730139,Estonia
Linklater,5960,KW17,S,1925,Yesterday,47484,PV,Fronius Primo 8.2,19.5,59.070916,-3.280108,United Kingdom
Granholt,13710,Norway,SW,2044,Yesterday,62873,LG 340  LG 385 Ja Solar 320,Solaredge SE15K and SE3680H,15.0,59.128623,10.24649,Norway
WZ64,3050,Norway,SW,790,96 weeks ago,74754,Solitek Solitek Standard M. 60,Ginlong Solis-1P3.6K-4G,5.0,59.198022,10.961148,Norway
AtorpSolberga,10240,Sweden,W,1432,Yesterday,76953,FUTURA SUN 320 M,FRONIUS SYMO 10.0-3-M,21.1,59.102777,16.243672,Sweden
OA-10,7280,Sweden,S,1426,5 weeks ago,71019,TrinaSolar TSM-DC05A.05,SamilPower SolarLake 5500TL-PM,7.6,59.270015,17.79664,Sweden
Skomakartorp 26  Ekero,4320,Sweden,S,2806,Yesterday,47133,Solibro SL-135,SolarEdge SE7K,8.8,59.271649,17.816875,Sweden
Skomakartorp 30,14430,Sweden,S,811,Yesterday,89467,Trina Solar Vertex S,SolarEdge SE17K,8.8,59.271188,17.817442,Sweden
Segeltorp,9800,Sweden,SE,2161,Yesterday,56510,Suntech 280,Solaredge,14.7,59.275465,17.924077,Sweden
johanlundstrom,8208,Sweden,SE,1883,Yesterday,66336,Suntech 300W POLY CRYSTALLINE,Fronius Symo 8.2-3-M,22.4,59.233609,18.067629,Sweden
Gustavsbergsvägen,10150,Sweden,SW,1964,Yesterday,64229,Phono solar,SolarEdge SE8K,24.9,59.22043,18.1093,Sweden
Workshop Fronius,6000,KW17,S,2022,Yesterday,51863,SolarWorld,Schuco 1700,1.9,59.04,-3.0,United Kingdom
SSV16 - Stavanger - NORWAY,2655,Norway,SE,2003,Yesterday,62981,IBC MonoSol 300 ZX5 Black,Fronius Symo 3.0-3-m,24.2,58.905092,5.729371,Norway
UBV28,3600,Norway,S,437,Yesterday,90295,Sunwind Grid 360,GroWatt,25.0,58.893021,5.729209,Norway
Larsbo Bjurstorp,7320,Sweden,SE,2523,Yesterday,52130,JA Solar JAP6-72-320/4BB,Fronius 10.0-3-M,0.7,59.02999,16.254713,Sweden
peter77,9600,Sweden,SW,2220,Yesterday,44765,Solyco R-TG 108p.3/400,Fronius,5.0,59.061581,17.970658,Sweden
Toppvagen 12,5145,Sweden,S,3033,23 weeks ago,35917,Hanwha Solar SF220-30-1P245L,Enphase M215,16.6,58.882847,17.839062,Sweden
Madise tuulik,4520,Estonia,S,4058,Yesterday,58330,Solar world black 280,SMA Windy boy 3600TL 21,14.1,58.914353,23.65289,Estonia
Vibevegen 3,5100,Norway,SE,1228,61 weeks ago,70513,,Solis,2.8,58.787977,5.713288,Norway
DarkleSol,860,Estonia,SE,1930,Yesterday,62116,Yingli,Iconica 3KVA Plus,11.9,58.800606,25.423963,Estonia
reaypv,4000,KW14,S,3701,2 days ago,34174,                     canadian cs5p-200m,fronius IG TL,8.0,58.556367,-3.782086,United Kingdom
Holmen 104 Øst,12000,Norway,E,504,53 weeks ago,85506,Hanwha Q-Cells QPeak 300W,Ginlong Solis 3P12K-4G,5.1,58.609675,6.0937,Norway
Holmen 104 Sør Vest,13500,Norway,SW,508,55 weeks ago,85544,Hanwha Q-Cells QPeak 300W,Ginlong Solis 3P10K-4G,5.1,58.609655,6.093721,Norway
Villa i Lidköping,12825,Sweden,SE,2157,Yesterday,64306,Perlight PLM 285W-60M,SAJ SunTrio Plus 10K,19.8,58.528954,13.121335,Sweden
Knottorp Fronius 8.2-3-m,8580,Sweden,S,1418,Yesterday,77076,,Fronius 8.2-3-m ,20.0,58.422572,14.17099,Sweden
8SG8Motala,3240,Sweden,E,3843,Yesterday,64364, YINGLI YL270C,SMA Sunny Boy 3000,3.5,58.564515,15.08741,Sweden
Fronius 10,12285,Sweden,S,1860,Yesterday,66791,Eurener MEPV 315,Fronius Symo 10,7.2,58.536213,15.038621,Sweden
fordonet,12800,Sweden,W,2362,Yesterday,54301,PPAM Palladium,SMA Tripower 15000,20.5,58.424753,15.782086,Sweden
Greenh50,9930,Sweden,SE,1428,Yesterday,76682,Eurener MEPV330,SYMO 8.2-3-M,21.5,58.46399,15.643295,Sweden
Furingstadsvagen12,15360,Sweden,SW,707,162 weeks ago,82335,Windon,Windon LT15HD,22.2,58.5801,16.296308,Sweden
Sarghaua elektrijaam,11440,Estonia,S,2783,Yesterday,43888,Suntellite ZDNY-260CB60 ,Fronius Symo 10.0-3-M,15.8,58.656697,25.240457,Estonia
Clashnessie Sutherland,4000,IV27,SW,779,Yesterday,81877,Pangea Systems 8.33,Aurora,19.6,58.221935,-5.314357,United Kingdom
Grimstad,5300,Norway,S,1890,43 weeks ago,51750,IBC PolySol 260CS,fronius primo 4.6-1,12.4,58.340981,8.580877,Norway
Börsås,12800,Sweden,SE,1145,Yesterday,83200,Heckert Solar NeMO,Fornius 12.5-3-M,22.0,58.366285,11.616669,Sweden
Olles solfarm,22990,Sweden,E,1531,Yesterday,74255,astronergy,Fronius,3.9,58.383921,11.994721,Sweden
Keflavik28,9905,Sweden,SW,2246,Yesterday,58247,Heckert nemo 2.0 60M,Fronius Symo 6.0-3M,13.9,58.3252,12.275559,Sweden
Gokottevagen,9150,Sweden,S,1697,Yesterday,74945,Longi Solar LR6-60PB-305M,SolarEdge SE7K-RW0TEBNN4,18.6,58.281534,12.318297,Sweden
Gokottevagen1,9150,Sweden,S,1697,Yesterday,100160,Longi Solar LR6-60PB-305M,SolarEdge SE7K-RW0TEBNN4,18.6,58.281455,12.318361,Sweden
Rutenhjelms Elektriska AB,38016,Sweden,S,3207,Yesterday,39760,= 120xSF170-S + 72xLG245S1K-G3,ABB Aurora TRIO-20.0-TL,20.3,58.330202,13.216779,Sweden
JP's solar farm,16120,Sweden,S,2406,Yesterday,55179,EC Solar,Fronius 8 2,10.7,58.411956,13.875025,Sweden
hjosweden,13400,Sweden,S,2108,Yesterday,61240,LG NeON2 LG335N1C-A5 - 335Wp,SolarEdge SE17k,16.6,58.30958,14.273054,Sweden
Vikingstad Fronius,12200,Sweden,SW,1733,Yesterday,69823,JA-Solar,Fronius 12.5-3,1.8,58.382864,15.373082,Sweden
Sjöglimten,11592,Sweden,S,1572,Yesterday,73220,SolarWatt,SMA TriPower,10.4,58.443228,15.475714,Sweden
Vicker,3825,Sweden,SE,1063,151 weeks ago,24266,PVE-225,SMA Sunny Boy 4000TL,14.9,58.404703,15.594461,Sweden
Villa Strand,13640,Sweden,S,833,159 weeks ago,58605,Sharp,SMA Sunny,16.6,58.49786,15.518264,Sweden
Gransbov32,10800,Sweden,S,1902,Yesterday,58081,Recom Solar Black Panther,Fronius Symo 10.0-3-M,16.6,58.497843,15.518415,Sweden
Kahu-Jaani,17600,Estonia,S,1239,Yesterday,88074,Canadian Solar CS3W-MS 440 ,Fronius Symo 15.0-3-M,18.0,58.241626,25.345454,Estonia
Termotuumajaam,6900,Estonia,S,1351,Yesterday,78900,,Fronius Symo 6.0,7.6,58.344506,26.717806,Estonia
Dvergsnessvingen160,3520,Norway,EW,2345,Yesterday,55010,Benq SunForte PM096B00,SolarEdge SE3000H,11.4,58.128399,8.07389,Norway
Björkbacken,21600,Sweden,EW,2609,Yesterday,51302,Bisol,SolarEdge,12.0,58.120984,11.70423,Sweden
Uppstugan,13440,Sweden,SW,3083,Yesterday,41515,JASolar JAM6(L)-60-280/PR,Fronius Symo 12.5-3-M,17.1,58.060462,11.730253,Sweden
callebo,5760,Sweden,S,4013,Yesterday,22241,JA-240W,Solar Edge SE7000,18.5,58.048478,11.74195,Sweden
Roreviken,11840,Sweden,EW,1379,Yesterday,77912,Solar edge,SolarEdge,19.3,58.046343,11.755843,Sweden
Hövikstrand,7840,Sweden,S,2127,137 weeks ago,42561,JASolar JAM6(L)-60-280/PR,Fronius Symo 7-3-M,21.4,58.020573,11.757448,Sweden
Gullvivevägen,11900,Sweden,W,1169,Yesterday,82770,Suntech,SolarEdge,22.8,58.063791,11.854519,Sweden
Bergstena Backgarden,7200,Sweden,SE,3690,Yesterday,28413,JA Solar JAP6-60 240W,SMA 6000 TL20,23.1,58.044288,12.651605,Sweden
Herrekvarn,27300,Sweden,N,1657,58 weeks ago,58919,PPAM,SMA Tripower,13.2,58.056313,13.870852,Sweden
Superautomatic Solar,8960,Sweden,SE,1495,Yesterday,75377,JA Solar,Fronius Symo 8.2-3-M,5.2,58.20891,14.808595,Sweden
Bjorktomta,8910,Sweden,S,2860,Yesterday,46706,PPAM Onyxium 330,SMA Sunny Tripower 10000TL-10,7.0,58.175388,15.712778,Sweden
Carlsborg,18700,Sweden,SE,2097,Yesterday,61287,Winaico,SolarEdge ,19.4,58.001755,16.291062,Sweden
Testanläggning / Garaget,2925,Sweden,SW,634,Yesterday,91920,,Steca Solarix PLI 5000-48,1.7,57.937206,11.808683,Sweden
Östergårdsgatan,12250,Sweden,SE,1242,Yesterday,81789,Longi,SolarEdge,12.7,57.853178,11.906819,Sweden
CellSolar Redbo,17680,Sweden,S,1090,Yesterday,89719,Suntech Mono 520,SolarEdge SE16K,16.0,57.852955,11.990966,Sweden
Faglevik,11220,Sweden,S,2859,Yesterday,46540,BenQ,SolarEdge,22.7,57.745414,11.792574,Sweden
SweetAsSolar,15600,Sweden,SE,738,Yesterday,90084,Sverigepanelen,Fronius Gen24 10.0 Plus,24.8,57.737359,11.917897,Sweden
Hokhults solcellspark,12960,Sweden,SW,3497,Yesterday,33870,Yingli,SMA TL 12 000,14.0,57.82732,12.659223,Sweden
Eriksgarden9,23660,Sweden,SW,2935,Yesterday,36595,kioto ,Symo 12.5-3-M,18.1,57.810932,12.760755,Sweden
Snowball Road Solar Centre,11970,Sweden,S,2864,Yesterday,46026,ECSolar ECS-315M72,SolarEdge,11.2,57.858522,14.139373,Sweden
Clovenside,2750,IV36,SW,3321,Yesterday,11842,Axitec,Enphase M215,25.0,57.61269,-3.602275,United Kingdom
TALKs,4000,AB54,SW,3382,103 weeks ago,14745,,GCI-3.6K,22.5,57.558086,-2.630911,United Kingdom
Affric Place lg 300 mono neon,3600,AB43,S,3041,Yesterday,37543,Lg Mono x Neon B3,Solis,23.6,57.685989,-2.023521,United Kingdom
Die Deutsche und der Dackel,10500,Sweden,SE,1921,Yesterday,65225,Suntech STP300S - 20/ Wfb,Fronius  Symo 10.0-3-M,0.7,57.738949,12.051928,Sweden
Ungmästaregatan,7020,Sweden,S,1851,Yesterday,75664,Qcells,Fronius ,1.4,57.745231,12.048453,Sweden
Ellösgatan Gbg,13975,Sweden,SE,3312,42 weeks ago,30325,AUO SunForte PM096B00,SMA STP12000-10,1.9,57.719267,12.044224,Sweden
GBGSMA1,7830,Sweden,S,1551,165 weeks ago,46901,Axitec GmbH AC-270M/156-60S,SMA Sunny Tripower 8000TL-20,4.1,57.715359,12.000901,Sweden
Ängårdskolonin,8100,Sweden,S,489,Yesterday,95238,405 W Mono,Sungrow SG6,7.8,57.686611,11.962926,Sweden
Lottis Chicken Shack,200,Sweden,S,638,Yesterday,93054,Unknown,Epever,7.8,57.686691,11.962743,Sweden
Planet4,3120,Sweden,N,1892,Yesterday,65159,Canadian Solar,Fronius,10.0,57.65731,12.146958,Sweden
Hinsholmen,11250,Sweden,S,1052,Yesterday,81615,,Ferroamp,13.7,57.666156,11.867638,Sweden
EspasSwe,9010,Sweden,W,3853,54 weeks ago,34762,Yingli yl-265,SMA 8000TL-10,14.8,57.601744,12.094732,Sweden
Högkullevägen,16000,Sweden,EW,738,Yesterday,91155,TBD,Huawei,14.9,57.601566,12.100866,Sweden
NorraHultavagen,11258,Sweden,S,481,Yesterday,96236,Euorener,Ferroamp,24.5,57.524678,11.931539,Sweden
Tomros,5120,Sweden,SW,2104,Yesterday,61397,Jinko,Solaredge,9.8,57.768659,13.822786,Sweden
Gebhard Solar Array,5670,Sweden,S,1989,100 weeks ago,46880,Einnova Solarline ESM 315,SMA Sunny Tripower 5000TL-20,10.7,57.668108,14.346311,Sweden
High Street  Rothes,4000,AB38,SE,3617,Yesterday,29332,Antaris M6 250,Enphase,20.1,57.48,-3.22,United Kingdom
Wheatland,4060,AB41,S,2357,56 weeks ago,58619,JA Solar,Solis ,20.9,57.339041,-2.19178,United Kingdom
Pittrichie,4500,AB21,S,980,Yesterday,51963,Not sure,Samil 4500,23.9,57.318979,-2.24061,United Kingdom
Eversolar RA9,3200,1000,S,4009,5 weeks ago,15056,EverSolar ZNSHINE ,Eversolar TL3000-11,15.5,57.442398,10.507592,Denmark
Granvej,3000,9300,S,2119,79 weeks ago,19512,Unknown,Eversolar 3000,23.6,57.3333,10.5333,Denmark
Ängsjödal,4760,Sweden,E,2294,Yesterday,56856,JA Solar,Solaredge SE5K,8.3,57.547547,12.454946,Sweden
Villa_Seraljen,17820,Sweden,EW,486,Yesterday,96514,LONGI LR5-54HIB 405,Solaredge/SE17K,23.2,57.401115,12.007424,Sweden
Bridgefoot World,4000,AB52,S,4563,Yesterday,49888,?,Aurora PVI-3.6-OUTD-UK -,5.6,57.34,-2.6,United Kingdom
clinterty Solar,2500,AB21,W,1974,84 weeks ago,50306,JA SOLAR 250W,Solar River,20.4,57.186379,-2.274844,United Kingdom
Not So Sunny Boy Aberdeen,2820,AB21,SE,1835,Yesterday,61982,Panasonic,SMA Sunny Boy 3000 HF,22.8,57.21,-2.2,United Kingdom
Pittrichie Charger,22330,AB21,S,580,Yesterday,94427,JA Solar,Victron RS 450/100 chargers,22.8,57.21,-2.2,United Kingdom
Felixnutella,4500,9490,S,921,19 weeks ago,51931,Yingli YL250c-30b,SMA SB 3300-1,18.8,57.214206,9.672818,Denmark
Flipper Power,16000,Sweden,E,1214,Yesterday,69687,PWM-250W,Growatt12KLT3-X SAJSuntrio 5K,24.9,57.173319,13.725068,Sweden
Inchukalns gigaplant,6400,Latvia,SW,643,Yesterday,91766,Trina Vertex Mono 400W,Growatt MOD 5000TL3-X,24.5,57.098214,24.686451,Latvia
NBC,6750,AB34,SW,2402,Yesterday,54716,SolarWorld AG,SolarEdge,10.2,57.09,-2.81,United Kingdom
CharlestownCircle,5600,AB12,S,436,Yesterday,101031,Foxess,foxess,4.9,57.1,-2.11,United Kingdom
IanJohnston.com,4320,AB39,S,1011,Yesterday,56414,Sapphire Solar,Bosch BPT,13.1,56.97,-2.21,United Kingdom
AberDinoPV,3430,AB39,SE,4332,Yesterday,10003,Hyundai HiS-S245MG (BK),Power-One Aurora PVI-3.0-OUTD,21.3,56.896335,-2.214077,United Kingdom
Growatt-mn230,5760,9440,E,2857,Yesterday,44704,,Grawatt 3000,7.9,57.15,9.75,Denmark
Ternevej 10,4000,9440,SE,4172,Yesterday,13296,Yingli Black panda,Sma 3000tl-21,8.4,57.159794,9.727962,Denmark
beechswung,5500,9430,S,1795,Yesterday,68419,LUXOR,Fronious,11.3,57.1167,9.8667,Denmark
PHJ Solar,3800,9240,SW,2956,174 weeks ago,16904,Trina TSM-190DC01a.05/Comax,SMA Sunny Boy 3000TL-21,12.3,56.979228,9.646008,Denmark
MB Solar Nibe,3800,9240,S,4209,Yesterday,67506,Trina Solar TSM-190 DC01.A.05,SMA SunnyBoy 3000,13.4,56.970232,9.636808,Denmark
Æblevangen,16340,9000,EW,379,Yesterday,99132,Hyundai G12 PERC Shingled,Growatt SPH 10000 TL3 BH-UP,14.7,57.048,9.9187,Denmark
SolKraft,10920,9530,S,4151,Yesterday,16065,ZNShine,SMA STP 8000TL-20,18.4,56.932157,9.793711,Denmark
WIRENFELDT,4800,9530,S,3227,Yesterday,36640,Alafasolar,Eneqsys SMI-D480,24.3,56.8854,9.8384,Denmark
CellMaster,6000,9280,S,3645,Yesterday,25218,Ulica Solar,GroWatt,24.9,57.0,10.1,Denmark
Marupe 5250w,5250,Latvia,SE,535,12 weeks ago,55504,Canadian Solar CS3L,Huawei SUN2000-6KTL-M1,23.0,56.891613,24.059104,Latvia
Henning B983000A12640029,3000,7900,S,2244,Yesterday,56785,Feiyue Solar Stingray Black,TL-3000,22.0,56.7625,8.6917,Denmark
Henning B983000A12640072,3000,7900,S,2246,Yesterday,56784,Feiyue Solar Stingray Black,TL-3000,22.0,56.7625,8.6917,Denmark
Henning Inv1 + Inv2,6000,7900,S,590,Yesterday,56786,Feiyue Solar Stingray Black,TL-3000,22.0,56.7625,8.6917,Denmark
MBoerre,15600,9640,S,519,Yesterday,95727,Risen RSM40-8-390MB,GROWATT MID 11KTL3-X,11.2,56.795031,9.29511,Denmark
Haraldsvej7,3000,1000,S,2242,Yesterday,12828,Zn Shine solar,Eversolar TL-3000,14.9,56.766297,9.326975,Denmark
Skovkrogen3,5000,1000,S,4088,Yesterday,16914,UnKnown,Solivia G4,8.7,56.885486,10.10636,Denmark
Tisted Skolevej 5 - west,4290,9510,S,4018,Yesterday,10793,Solar Innova Monokrys 195 Wp,Sunny Boy 3000HF,11.3,56.777013,10.03246,Denmark
Tisted Skolevej 5 - East,3900,9510,S,4014,Yesterday,10792,Solar Innova Monokrys 195 Wp,Sunny Boy 3000HF,11.3,56.777004,10.032464,Denmark
Tisted Skolevej 5 Total,8190,9510,S,4261,Yesterday,10791,Solar Innova Monokrys 195 Wp,Sunny Boy 3000HF,11.3,56.77689,10.032407,Denmark
Chris_t,3000,9510,S,1890,108 weeks ago,22101,ullica,sma sunny boy 3000 tl-21 rpc,12.7,56.7667,9.8833,Denmark
Bettyvej 17,6240,9280,S,2982,171 weeks ago,29826,Sunset Panel Type PX260/60,SMA Sunny Boy SB3000,16.8,57.005554,10.093245,Denmark
Hyldal Moellevej 4 2/2,4000,9541,S,2668,147 weeks ago,15602,a,Eversolar TL3000,18.8,56.835409,9.661916,Denmark
Hyldal Moellevej 4 1/2,4000,9541,S,3059,Yesterday,15601,a,Eversolar TL3000,18.8,56.835382,9.661843,Denmark
Villa_Daniel,12390,Sweden,S,918,Yesterday,87387,Trina Solar/300DD05A,Solaredge/SE15K-ER-01,10.3,56.908979,12.481327,Sweden
Solhagav 34 Falkenberg,11520,Sweden,EW,1699,Yesterday,70604,LG320N1K-A5,Solaredge SE17K,10.6,56.914692,12.481267,Sweden
Andreas Home,9900,Sweden,S,2026,78 weeks ago,51034,Onyxium,Power-one,7.8,56.849806,14.80823,Sweden
Granvägen,7680,Sweden,SW,1474,Yesterday,77182,Trina solar,Solaredge ,23.4,56.793863,15.117424,Sweden
Trekanten109,25025,Sweden,S,680,Yesterday,89016,Trina,Fronius,20.9,56.702665,16.112448,Sweden
KatlaFcuk,6000,Latvia,SE,398,Yesterday,98110,Longi,Fronius,3.6,56.880658,24.189749,Latvia
Laucese Solar,11700,Latvia,S,921,Yesterday,86674,Qcells Q.PEAK DUO ML-G9,GoodWe GW10k-ET,21.8,56.734523,24.387589,Latvia
Onion field,9800,Latvia,SE,515,8 days ago,93170,Scheuten,Sungrow,22.4,56.83544,24.494791,Latvia
Netherton,2150,DD8,S,1372,106 weeks ago,41079,Schuco ,Sunny Boy 2000,4.8,56.67632,-2.996389,United Kingdom
SunnyInchture,6080,PH14,S,810,Yesterday,89486,Q.PEAK DUO BLK ML-G9+ 380,Enphase IQ7A,24.0,56.45,-3.18,United Kingdom
BroughtyFerry,1600,DD5,S,527,Yesterday,95353,sharp,SolarRiver,24.2,56.47,-2.86,United Kingdom
Little Welly,6400,DD5,S,381,Yesterday,99113,JA JAM72S10 405,Givenergy Gen1 5kW Hybrid,24.2,56.47,-2.86,United Kingdom
Verner - Risvaenget,6560,7860,S,569,Yesterday,94710,Longi 410W,Growatt SPH,8.8,56.64042,8.814887,Denmark
Strandbjerggaard,8400,7790,S,1173,31 weeks ago,77033,EG300-M60,GMDE,11.5,56.60726,8.507924,Denmark
Lucernemarken,6000,7600,S,2727,Yesterday,39302,Amerisolar AS-6P30-240,Trannergy PVI3200TL,18.7,56.507568,8.532774,Denmark
Lucernemarken1,2880,7600,S,3240,Yesterday,39293,Amerisolar AS-6P30-240,Trannergy PVI3200TL,18.7,56.507544,8.532731,Denmark
Lucernemarken2,3120,7600,S,3150,Yesterday,39294,Amerisolar AS-6P30-240,Trannergy PVI3200TL,18.7,56.507497,8.532752,Denmark
CVO_Solar,2160,7600,E,2995,37 weeks ago,34850,TSMC TS-120C CIGS,SMA Sunny Boy 2000-HF,19.1,56.491644,8.5866,Denmark
Johs Buchholtz Vej  Struer,3000,7600,S,1477,Yesterday,47683,Ulica Solar 250?,Growatt 3000,19.2,56.4912,8.5838,Denmark
PVPro HV41,10665,7800,S,452,Yesterday,96619,JA Solar,Growatt MOD 10KTL3-XH,22.4,56.592273,9.020419,Denmark
PV270,8580,7800,S,472,Yesterday,96819,Risen RSM-40-390MB,Growatt MOD 8000TL3-X,24.2,56.5667,9.0333,Denmark
Sol_LF,6000,9500,W,2194,2 days ago,37336,LG,Enecsys 480 W,14.1,56.615151,9.67357,Denmark
Sun-Power,6000,8800,S,1497,Yesterday,54769,,Gropower,22.8,56.4532,9.402,Denmark
sun city,12220,8800,S,497,Yesterday,96435,Jinko,Deye,22.8,56.4532,9.402,Denmark
Sol_i_Hobro,5760,1000,S,4253,Yesterday,11706,MPrime,SMA 3000TL-21,22.9,56.627544,9.827604,Denmark
Affer TLXpro,5760,7840,S,974,92 weeks ago,73481,Renesolar 240p virtus,TLXpro,23.8,56.551398,9.11821,Denmark
Affer Total,33995,7840,NW,916,Yesterday,87435,Risen RSM40-8-390MB,GROWATT MID 20KTL3-X,23.8,56.551321,9.118148,Denmark
Affer Growatt MID 20KTL3-X,28080,7840,W,877,Yesterday,87451,Risen RSM40-8-390MB,GROWATT MID 20KTL3-X,23.8,56.551321,9.118137,Denmark
Affer Deye SUN-10K-SG04LP3,5915,7840,NW,573,Yesterday,94625,SK8612MHVC-455,Growatt SPH-3600,23.8,56.551296,9.118127,Denmark
Affer PIP5048MK,4650,7840,W,951,86 weeks ago,59050,Amerisolar,MPP PIP-5048MK,23.8,56.551267,9.118058,Denmark
Powerplant 2A,9600,8920,S,4187,Yesterday,12378,Kinve KV-200 72MW, SMA Sunny Boy 3000-TL21,18.5,56.4905,10.2286,Denmark
Gatehult,11440,Sweden,S,2558,Yesterday,52426,Heckert NeMo 60P,Fronius Symo ,10.4,56.60602,15.077846,Sweden
Sjobacken,20000,Sweden,EW,2797,Yesterday,47142,OSDA Solar,Solaredge,22.7,56.488966,14.722077,Sweden
Astad,11840,Sweden,SW,1794,Yesterday,67996,Suntech STP370S-24/Vfhb,Solaredge SE10K,15.8,56.749547,16.694913,Sweden
Öland MBLA,20930,Sweden,S,391,Yesterday,98700,Longi,Huawei,17.2,56.511207,16.405034,Sweden
Julia Power Station,4000,KY16,E,2295,Yesterday,8772,Hitachi,SMA 2100TL,12.6,56.34,-2.81,United Kingdom
KaersSolar,6500,1000,SW,2116,127 weeks ago,15834,Ulica,Goodwee,19.1,56.416727,8.484375,Denmark
PV PLANT VITTRUPVEJ,3510,1000,S,3095,111 weeks ago,9185,BAUER,SMA SONNY BOY 3000 TL 21,6.3,56.441953,9.056222,Denmark
Dalgasvej 12,7200,7470,SW,1189,105 weeks ago,16476,ET-M572200,SMA Sunny Boy 3000TL-21,21.4,56.342127,9.253128,Denmark
Egetoften13-solceller,14040,7500,EW,656,Yesterday,92685,Risen,Growatt,22.7,56.3601,8.6161,Denmark
KnudAggersVej12B,3000,1000,S,2771,14 weeks ago,12678,ZNSHINE ZX200(37)MS Black (GA),EverSolar Evershine TL3000-10,22.9,56.388658,8.594453,Denmark
Snehvidevej 13,1500,8870,S,981,66 weeks ago,71533,,GroWatt 2000-S,13.0,56.439877,9.943087,Denmark
Solsortevej,7920,8643,W,1171,Yesterday,82239,ET-Solar - ET-M572200BB,Fronius IG Plus 60 V-2 ,17.6,56.302929,9.592143,Denmark
lasing,6975,1000,SE,4317,Yesterday,16913,CIS Tyndfilm,Fronius IG Plus 60V-2,18.5,56.444776,10.033233,Denmark
Toch.dk,2660,1000,S,4212,Yesterday,13815,Sungen,SMA SB2500HF-30,19.4,56.440363,10.048081,Denmark
Hammel  DK,9750,1000,S,2346,167 weeks ago,12766,Ulica 195D,SMA Tripower 10000TL,20.1,56.296277,9.929206,Denmark
MUSHOME 1,2400,8963,S,3249,7 days ago,37634,AS ,Trannergy,7.9,56.4333,10.3833,Denmark
MUSHOME 2,2400,8963,S,2659,87 weeks ago,37638,As,Trannergy,7.9,56.4333,10.3833,Denmark
MUSHOME,4800,8963,S,4365,Yesterday,36887,AS-5M 200 wp,Trannergy PVI2300,7.9,56.4333,10.3833,Denmark
mnj,6000,8560,S,3757,Yesterday,21946,Verdo,Fronius IG plus 70 V-2,9.9,56.3667,10.6,Denmark
Powerplant 19 A,11000,8963,S,4167,Yesterday,16333,Zhejiang ZG-Cells (Verdo),Fronius IG Plus 70-2 ,12.5,56.410378,10.315569,Denmark
Elmelundsvej 18,7000,8963,S,3245,131 weeks ago,15925,Topsola TSM96-125M,Delta Solivia EU 3.0 G4,12.5,56.410537,10.314991,Denmark
kirkebakken15,4290,1000,SW,4213,Yesterday,13266,,SMA Sunny Boy 3000,12.8,56.369452,10.348414,Denmark
Eskerod_sol,6000,8543,SE,4015,Yesterday,18349,Himin,Fronius IG plus 60 V-2,19.1,56.293914,10.348886,Denmark
ylvagarden,2880,Sweden,NW,3287,3 days ago,20535,Tengen,Tengen,16.5,56.388278,13.096444,Sweden
Bauska_LV,7125,Latvia,S,746,13 weeks ago,87858,Fronius,Fronius,22.0,56.427194,24.096451,Latvia
BP01 PV,4220,FK9,S,2375,133 weeks ago,35863,PowerGlaz,SMA Sunny Boy 3000 HF,9.5,56.14,-3.94,United Kingdom
Coach House Cottage,50,FK8,N,756,175 weeks ago,59356,,Energyhive Hub Version: 2.3.8,13.2,56.13,-4.05,United Kingdom
EnergyHive DB3 E10,50,FK7,N,978,174 weeks ago,46014,,Energy Monitor,15.1,56.09,-3.91,United Kingdom
Skeabost,6630,FK14,SE,802,75 weeks ago,78861,SunPower Maxeon 3,SolarEdge 6000W,17.8,56.16,-3.66,United Kingdom
Brynyneuadd,7380,KY13,S,528,Yesterday,94300,Eurener,Givenergy,17.6,56.2,-3.43,United Kingdom
Hattonburn Solar,3990,KY13,S,4079,Yesterday,27940,Antaris,Aurora PVI-3.6-TL-OUTD,17.6,56.2,-3.43,United Kingdom
Scobo,2880,KY4,S,4334,2 days ago,7055,REC,Fronius IG30 ,18.3,56.11,-3.36,United Kingdom
PVPro Biogas Teknik,58860,6950,EW,423,Yesterday,97975,JA Solar JAM72S30-545/MR,Growatt MID 17KTL3-X,13.6,56.143661,8.295493,Denmark
PVPro SP62,9480,7451,S,466,Yesterday,96303,JA Solar,Growatt MOD 8000TL3-XH,13.8,56.212379,9.010001,Denmark
Lyovej  - Inverter nr:1,3000,7400,SE,3759,Yesterday,15410,shine,Eversolar TL-3000,14.2,56.135101,9.070041,Denmark
Lyovej  - Inverter nr: 2,3000,1000,S,3748,Yesterday,15411,Shine,Eversolar TL-3000,14.2,56.135006,9.069955,Denmark
PDK_sol2,1500,1000,SE,2326,Yesterday,19679,ZNShine,Eversolar,17.1,56.180439,9.495718,Denmark
PDK_Sol,3000,1000,SE,2332,Yesterday,19061,ZNShine,Eversolar TL3000,17.1,56.180487,9.495804,Denmark
Herning-2-dk,6400,7400,S,3985,54 weeks ago,37719,ZNShine,KLNE,18.2,56.141093,8.980538,Denmark
GreenPower4AllInv1,3760,7400,SW,1892,153 weeks ago,39741,SMA,SB3000TL-21,18.6,56.1393,8.9738,Denmark
Skovl?bervej 20 S,3900,1000,SE,2995,131 weeks ago,13346,Schuco MPE 260 ,SB3000,18.8,56.169474,9.517991,Denmark
Skovl?bervej sum,6240,1000,SE,2911,120 weeks ago,20148,Schuco,SMA 2150  SMA 3000,18.8,56.159997,9.511497,Denmark
Skovl?bervej 20 L,2340,1000,SE,2866,120 weeks ago,13446,Schuco MPE 260 ,SMA 2100,18.8,56.159988,9.511503,Denmark
GreenPower4All,7285,1000,S,2919,155 weeks ago,9665,Ligitek 230BB,SMA Sunny Boy 3000TL-21,19.7,56.135819,8.957688,Denmark
AK_Solceller,4560,1000,SE,4176,Yesterday,14777,Risen,Delta Solivia 3.6,20.0,56.142251,8.944513,Denmark
Silkeborg Inv1+Inv2,6840,8600,SW,3930,Yesterday,18367,Ulica,SMA SB 3300,20.3,56.1697,9.5451,Denmark
Silkeborg inv. 1,3420,8600,SW,3797,Yesterday,18116,Ulica,SMA SB 3300,20.3,56.1697,9.5451,Denmark
Silkeborg inv. 2,3420,8600,SW,3794,Yesterday,12075,Ulica,SMA Sunny Boy 3300,20.3,56.1697,9.5451,Denmark
PVPro GV3,15210,7400,EW,402,Yesterday,98510,Risen 390W,Deye SUN-12K-SG04LP3-EU,20.6,56.107572,8.974918,Denmark
PVPro SunMountain28,8690,7400,S,527,Yesterday,95490,JA Solar,Growatt MOD 8000TL3-X,22.3,56.136805,8.908925,Denmark
PVPro Garage Roof,7800,7400,S,687,Yesterday,91357,Risen,Growatt MOD 5000TL3-X,22.4,56.135597,8.908206,Denmark
PVPro Hvedemarken3,12960,7400,S,672,Yesterday,92396,Ulica Solar,Deye 10K,23.5,56.132817,8.89075,Denmark
Snaa Roof1,1000,8462,S,3053,5 days ago,37239,Enecsys,Enecsys,7.6,56.156655,10.012707,Denmark
RVTotal,6000,1000,N,1781,Yesterday,18007,type,type,8.1,56.242802,10.133225,Denmark
RVOst,3000,1000,N,1751,Yesterday,17458,type,type,8.8,56.15418,10.067307,Denmark
Galten,2080,8464,SW,1729,Yesterday,65755,unknown,ZL2000S,9.2,56.154659,9.92679,Denmark
Aalund1,7300,8464,EW,368,9 weeks ago,97399,Ulica Solar,Growatt,9.6,56.15201,9.922805,Denmark
Jess Inv1 + Inv2,6000,8380,S,584,Yesterday,56237,Feiyue Solar Stingray Black,Eversolar TL-3000,10.3,56.25,10.1667,Denmark
Jess B983000A128P0028,3000,8380,S,2011,Yesterday,56173,Feiyue Solar Stingray Black,TL-3000,10.3,56.25,10.1667,Denmark
Jess B983000A128Q0067,3000,8380,S,1987,2 days ago,56235,Feiyue Solar Stingray Black,Eversolar TL-3000,10.3,56.25,10.1667,Denmark
Pebbel7a,3000,8464,S,3397,Yesterday,25941,Znshine / Stingray,Evershine tl3000,12.1,56.119981,9.954317,Denmark
Pebbel7b,3000,8464,S,3408,Yesterday,26227,Znshine / Stingray,Evershine tl3000,12.1,56.11998,9.954315,Denmark
HY27,9000,8310,S,1037,13 weeks ago,83138,Powerwell Solar BW-SM250M60,Danfoss TLX 6K,14.6,56.1102,10.1175,Denmark
SunB20,4500,8000,S,2193,65 weeks ago,50091,,Energy Monitor,14.8,56.1567,10.2108,Denmark
RVVest,3000,1000,W,1760,Yesterday,17766,type,type,15.1,56.193932,10.243089,Denmark
Trankaergaardsvej,4900,8310,S,4129,Yesterday,18640,Hyundai,GeSolar 3300,17.3,56.088512,10.137517,Denmark
Holmegårdsvej 14,3150,8270,SW,1964,138 weeks ago,54820,Evershine,Evershine,17.9,56.1112,10.2099,Denmark
holmevej,3200,8270,SW,660,Yesterday,92617,Hyundai,Growatt,17.9,56.1112,10.2099,Denmark
SSV7 - solar,6000,8660,EW,2013,Yesterday,65981,Ulica Solar UL-300M-60,Zever Solar TLC5000,19.2,56.053708,9.974959,Denmark
Ellelausvej,6560,8660,S,1541,Yesterday,71940,Sungen,SMA,21.2,56.0399,9.9272,Denmark
Klv1,4500,8660,E,3817,Yesterday,18544,Phono Solar Onyx Series,Fronius IG Plus V60-2,21.7,56.036108,9.919075,Denmark
Almuevej 30 Skanderborg-1,3705,1000,S,3360,Yesterday,20048,SunGen SGM-195D,SMA Sunny Boy 3000TL-21,23.4,56.024867,9.890196,Denmark
Bastevangen,6480,3230,S,761,Yesterday,88484,Sunket,Fronius,16.4,56.097753,12.194229,Denmark
Astratorp,15120,Sweden,S,1417,Yesterday,77191,Longi,Fronius 12.5,21.5,56.105945,13.373963,Sweden
Fridlund60,21600,Sweden,S,1750,Yesterday,69439,Trina TSM-DD05A.08,Fronius Symo 15.0-3-M,11.7,56.145538,14.52427,Sweden
Johannishuset,14175,Sweden,S,1499,Yesterday,74711,REC N-Peak,Solaredge 12K5,0.2,56.226917,15.421083,Sweden
Fridhemsvagen21,14235,Sweden,E,986,Yesterday,86129,JA Solar 365W JAM60S21 HCell,Fronius Symo 12.5,15.0,56.199638,15.659637,Sweden
Högabergsvägen 16,8540,Sweden,SE,984,Yesterday,86191,JAM60S01,Fronius,15.0,56.201978,15.661102,Sweden
Ascot Ave Glasgow,5950,G12,S,595,55 weeks ago,86020,J A Solar JAM72S10-410/MR,Solis,13.3,55.891558,-4.317498,United Kingdom
Broomley solar arrays x 4 -,6125,G83,SW,2799,31 weeks ago,40523,Amerisolar AS-5M-185W,ABB Aurora PVI-3.6-OUTD,14.7,56.01,-4.58,United Kingdom
Ascot Ave PV system,4000,G12,SE,3357,74 weeks ago,20582,Carey Glass,Power One Aurora Uno PVI-3.6,14.7,55.88,-4.3,United Kingdom
The Rodney Genny,2750,G69,S,3053,Yesterday,42343,JA Solar,Growatt 3000MTL,18.5,55.904056,-4.114033,United Kingdom
Rico's Home,6500,G65,S,1582,Yesterday,66986,VIR-PV16-260P-B,Solis,18.7,55.977039,-4.048906,United Kingdom
Big Daves,4000,G65,S,1889,142 weeks ago,46027,Jurawatt,Trannergy,18.8,55.97,-4.05,United Kingdom
EnergyHive Credit,25000,G40,N,1627,175 weeks ago,43157,,Energy Monitor,20.4,55.84,-4.22,United Kingdom
Rivendell on Clyde,1500,G40,SE,450,Yesterday,96018,Unknown,Unknown,20.4,55.84,-4.22,United Kingdom
Greenlothian,3800,EH49,SE,2151,Yesterday,6333,Antaris AS 190M,Solaredge SE4000H,4.5,55.97,-3.59,United Kingdom
Dyball SMA001D,3840,KY12,S,881,Yesterday,91062,Trina,SMA Sunny Boy 3600-21TL,8.5,56.07,-3.49,United Kingdom
Sma-mf,2500,KY12,S,1078,107 weeks ago,41606,Sharp,Sma sunny boy,8.5,56.07,-3.49,United Kingdom
Rooftop in West Lothian,3360,EH52,S,4495,Yesterday,3981,Sanyo HIT-240SE10,SMA Sunny Boy 3300,10.6,55.93,-3.48,United Kingdom
Mohawk Heights (Decomissioned),5655,EH52,S,925,38 weeks ago,82492,11 LG 390N2T 4 LG 340N1K-V5 ,Solaredge SE3680H,10.8,55.92449,-3.490992,United Kingdom
South Queensferry  Scotland,3920,EH30,SW,2866,171 weeks ago,12485,REC245PEI 245 W,Aurora PVI-3.6-TL-OUTD Jan'14,12.6,55.98,-3.38,United Kingdom
Iotum - Kirkliston,4720,EH29,SE,2030,Yesterday,62895,QCell,SolarEdge,12.7,55.958974,-3.392671,United Kingdom
Solarbrooke,27900,EH48,SW,1837,Yesterday,65897,,SolarEdge 6000,13.3,55.9,-3.66,United Kingdom
Steel Solar System,4000,EH54,EW,394,19 days ago,26185,Yingli Panda,Growatt 3600 MTL,13.7,55.894077,-3.500544,United Kingdom
Carrick Towers,5852,EH54,EW,1171,Yesterday,82671,Yingli,solar edge,13.7,55.89,-3.52,United Kingdom
My Castle Rear,5775,EH54,SE,393,Yesterday,29954,Phono Solar Technology Co,Solis,13.7,55.89,-3.52,United Kingdom
EastWestEdinburgh,6240,EH28,E,811,Yesterday,88730,TSM-DE09.05,GivEnergy 5kW Hybrid Gen 1,14.8,55.930933,-3.382416,United Kingdom
near Edinburgh Scotland,4000,EH27,S,4132,Yesterday,9647,SMA,SMA Sunny Boy,16.5,55.882822,-3.437948,United Kingdom
Enphase 24Panel,7200,EH47,SW,2542,Yesterday,49879,Solex q cell,enphase,17.5,55.86,-3.66,United Kingdom
SolarGremlin,4000,EH47,SW,3133,Yesterday,41545,Seraphin,zeversolar tl3680,17.5,55.86,-3.66,United Kingdom
Light side of the roof,3990,EH12,SE,2993,Yesterday,44069,JA Solar,Solaredge,20.5,55.94,-3.27,United Kingdom
Current Cost Envir - Edin,50,EH11,N,1351,48 weeks ago,56838,tbc,tbc,22.6,55.93,-3.24,United Kingdom
39CherryPnls,2000,G67,S,386,8 weeks ago,96172,Unsure,SMA Sunny Boy,24.0,55.961942,-3.95084,United Kingdom
Scott_Solar,2760,EH13,SW,4396,Yesterday,5675,ET SOLAR 230W - P660230,Power One - Aurora PVI-3.0,24.1,55.9,-3.24,United Kingdom
Gullscarer,3996,EH10,SW,3949,Yesterday,18715,Sunpower E20/333,Aurora PVI-3.6-TL-OUTD,24.8,55.92,-3.21,United Kingdom
East Lothian S facing Roof,3920,EH41,S,4573,Yesterday,5729,Solarworld,Sunny Boy,6.2,55.954515,-2.800727,United Kingdom
Comrie,4455,EH42,SW,379,Yesterday,97530,DMEGC Solar DM405M10-54HBB,Solar Edge SE3680,17.9,55.99,-2.52,United Kingdom
SouthWestDunbar,6480,EH42,SW,457,Yesterday,96800,SolarEdge,SolarEdge Smart 6KW,17.9,55.99,-2.52,United Kingdom
Eastern Scottish Riviera,5320,TD14,SW,845,Yesterday,88314,JA,SolarEdge SE3680,17.5,55.86,-2.12,United Kingdom
Maskinhus,5760,6880,S,1127,97 weeks ago,36535,Bosch M60 S 240wp,Enecsys SMI-S480W-60 VDE4105,16.4,55.9167,8.5333,Denmark
Blæsbjerggaard,7020,1000,S,2988,35 weeks ago,14975,,SMA Sunny Boy 3000 TL,22.4,55.955952,9.160249,Denmark
FV41,6240,7330,S,1921,Yesterday,65308,Winaico WSP - 260M6-BF-BB,Fronius SYMO 6.0-3M,24.0,55.936728,9.143635,Denmark
Inverter_E_B983000A12870108,2200,8300,E,3045,100 weeks ago,23421,Eversolar,Eversolar TL 3000,14.7,55.891023,10.172619,Denmark
Inverter_S_B983000A12620039,2800,8300,S,3039,100 weeks ago,11235,Eversolar,Eversolar TL3000,14.7,55.890783,10.172662,Denmark
Ohmannsvej 11,5760,3360,S,1506,46 weeks ago,67054,Canadian Solar CS6P-240P,Danfoss TLX +6k,10.5,56.0167,11.9833,Denmark
Lake Arresoe,5500,3200,S,4341,Yesterday,9129,SS1-BM250C,GOODWE GW3000-SS,17.0,56.016469,12.087808,Denmark
Mogens Olsen,4000,3000,N,3039,Yesterday,37681,Sunrise,Enecsys,3.4,56.0361,12.6136,Denmark
Solskivan1  Helsingborg,10500,Sweden,S,3919,Yesterday,23094,ZNShineSolar ZX250(48)MS,Fronius IG Plus 100 V-3,14.6,56.004486,12.819699,Sweden
Tulstrup,7000,3400,SE,848,Yesterday,88647,o,Danfoss,19.4,55.9267,12.3109,Denmark
Byskellet,2000,2960,S,1137,142 weeks ago,60488,NN,PVI2300TL,20.2,55.829,12.5526,Denmark
Vestvej_Alleroed2,2800,1000,S,2333,Yesterday,16717,,Volta VL3000,22.2,55.864637,12.340818,Denmark
Vestvej_Alleroed1,2800,1000,S,2334,Yesterday,16716,,Volta VL3000,22.2,55.864624,12.340826,Denmark
Vestvej_Alleroed,5600,1000,S,1785,65 weeks ago,16834,Volta,Volta VL3000,22.2,55.86463,12.340802,Denmark
Lavt tag,3250,2830,S,2550,Yesterday,20016,Ningbo Qixin SL250CE-48M,Sunny Boy 3000HF,24.5,55.8,12.4667,Denmark
Solar5,7000,2830,N,3336,Yesterday,36657,,Energy Monitor,24.5,55.8,12.4667,Denmark
Hoejt tag,3250,2830,S,2338,Yesterday,20017,Ningbo Qixin SL250CE-48M,SMA Sunny Boy 3000HF,24.5,55.8,12.4667,Denmark
Foggie505F,9940,Sweden,S,1063,Yesterday,84453,Energetica,SMA TP 10,22.1,55.841919,13.543332,Sweden
dovis,10500,Lithuania,SE,1465,Yesterday,76143,Q-cells G8,Solar edge,8.4,55.950706,23.274349,Lithuania
Rugpieniai,12900,Lithuania,SE,2028,Yesterday,60629,Luxen,SMA STP 10k,22.9,55.838097,23.154771,Lithuania
sus69,2160,Latvia,SW,706,Yesterday,85760,,mpp solar,11.7,55.91083,26.498337,Latvia
Ryan's Pad,2000,KA21,E,1243,10 weeks ago,60173,Unknown,SMA Sunny Boy 2500HF-30,16.3,55.648609,-4.785168,United Kingdom
Maxwood,4200,KA11,S,1704,15 weeks ago,68219,JA Solar,SolarEdge 4000,22.3,55.61,-4.62,United Kingdom
Brae Farm,3920,ML10,SW,1801,151 weeks ago,28989,Sharp,Power One Aurora,13.3,55.68,-4.06,United Kingdom
Crofthead,9875,ML10,S,1180,Yesterday,82517,LG365Q1C-V5,SolarEdge 6000H,14.4,55.672357,-4.072237,United Kingdom
PA145,11970,G77,S,1803,Yesterday,68212,JA Solar ,Solaredge SE6000  SE5000 ,21.1,55.77,-4.33,United Kingdom
kirstyrat,3920,EH26,S,3142,139 weeks ago,11240,solarworld sunmodule plus SW,Aurora powerOne 3.6 TL outd,4.8,55.796241,-3.30759,United Kingdom
Mill Lade Total,8000,EH46,SW,1283,Yesterday,80103,Sanyo/Panasonic,Energy Monitor,10.3,55.73,-3.35,United Kingdom
Mill Lade Extra,4080,EH46,SW,1295,Yesterday,80102,Panasonic HIT340,SolarEdge HD Wave 3000,10.3,55.73,-3.35,United Kingdom
Northern Sun,3920,EH23,SE,3048,63 weeks ago,3253,Sharp,Aurora,11.9,55.83,-3.05,United Kingdom
Mill Lade Solar,3920,EH46,SW,4627,Yesterday,4264,Sanyo HIT244E01,Sunny Boy 4000TL-20,15.6,55.687446,-3.391199,United Kingdom
Tistrup.nu - SolarEdge,7380,6862,S,4364,Yesterday,46385,Sveigaard Green Energy,SolarEdge se7k,23.6,55.7167,8.6,Denmark
BorgsPowerPlant,2400,7130,SW,3602,17 weeks ago,16860,ET Module,SMA Sunny Boy 2500HF,15.4,55.791294,10.024821,Denmark
SkovbyvejSol,5220,1000,SW,563,41 weeks ago,16926,Ginlong,Ginlong,16.8,55.668704,9.630258,Denmark
Right,3000,7100,SW,1541,132 weeks ago,24493,Stingray,Evershine TL-3000-10,17.9,55.7093,9.5357,Denmark
Stormosegaard,11060,7100,S,534,Yesterday,95427,JA Solar,Growatt MOD 10KTL3-X,17.9,55.7093,9.5357,Denmark
Teglholmen,2100,7100,N,1338,Yesterday,77702,Unknown,Fronius,17.9,55.7093,9.5357,Denmark
Left,3000,7100,SW,1522,132 weeks ago,37417,Stingray,Evershine TL-3000-10,17.9,55.7093,9.5357,Denmark
Petershojvej,8640,7100,EW,823,Yesterday,89126,SolarTag,Fronius Symo 10.0-3-M,17.9,55.7093,9.5357,Denmark
Fredericia Feiyue2nd,2000,7000,S,3949,Yesterday,11868,ZNSHINE ZX200(37)MS,Eversolar TL 2000,24.6,55.577108,9.703643,Denmark
Aloaha Enecsys 2000021908,6860,4420,S,3167,Yesterday,38362,Aloaha Dataservices.Solar,Enecsys 480,23.9,55.6667,11.6167,Denmark
Strandhoejen,4560,3600,S,4162,Yesterday,13724,AK-Solar_JTA-200W,Goodwe GW06K-DT,8.9,55.826673,12.064652,Denmark
JF,6000,4050,S,1503,Yesterday,18678,Ulica Solar UL-250M-60,Growatt 3000,9.1,55.742872,11.987251,Denmark
JF-South 2,3000,1000,S,3156,Yesterday,19053,Ulica Solar UL-250M-60,Growatt 3000,9.1,55.742741,11.987145,Denmark
JF-South 1,3000,1000,S,3480,Yesterday,19055,Ulica Solar UL-250M-60,Growatt 3000,9.1,55.742694,11.987161,Denmark
Egernvej_1,4080,4300,E,1938,128 weeks ago,11518,Mitsubishi MLT-255HC,#2 SMA SB3000TL21,10.8,55.762451,11.711223,Denmark
Egernvej_2,3825,4300,E,1943,128 weeks ago,11056,Mitsubishi MLT-255HC,#1 SMA SB3000TL21,10.8,55.762403,11.711137,Denmark
Rosenbakkevej_10,5880,3660,SW,1147,Yesterday,18439,Qsolar,Fronius Symo,5.6,55.7683,12.1972,Denmark
Soltossen,8750,3500,S,2459,65 weeks ago,18057,Himin,Danfoss TLX Pro+,7.0,55.7833,12.3833,Denmark
Evavej 17,6030,3500,S,2205,147 weeks ago,40683,Sunpower X21,SMA STP 5000-TL20,7.0,55.7833,12.3833,Denmark
Solvej11,3500,2750,S,3463,80 weeks ago,38815,Viessman 250SD,SMA TL3000,8.9,55.7316,12.3633,Denmark
Skin59,7105,2730,SE,4238,Yesterday,14988,Aleo,SMA Sunny Boy 3000,10.1,55.747258,12.411647,Denmark
Tordisvej Ennogie Energy Roof,7680,2880,S,1976,Yesterday,70389,Ennogie,APS,12.5,55.7667,12.4667,Denmark
Groennevej 109,6500,2830,S,4137,Yesterday,20014,Ningbo Qixin SL250CE-48M,2x SMA Sunny Boy SB3000HF-30,12.6,55.788375,12.474687,Denmark
Trekroner Roskilde,6240,4000,SW,2239,25 days ago,51811,Hyundai HiS-S260RG,Fronius Symo 6.0.3-M,4.8,55.661646,12.14169,Denmark
Hoejgaardstoften 2630 DK,6000,2630,S,4086,Yesterday,15243,Solar Leading,JFY,5.2,55.639261,12.305257,Denmark
GlostrupEHa,3000,2600,S,4207,Yesterday,13769,ZNshine (Galium),EverShine TL 3000,9.9,55.703039,12.425677,Denmark
GlostrupEHb,3000,2600,S,4205,Yesterday,13955,Zn,EverShine TL 3000,9.9,55.703039,12.425715,Denmark
Venstre,3000,2670,S,2006,153 weeks ago,64405,w,w123,11.1,55.5833,12.3,Denmark
Hoejre,3600,2670,S,1630,153 weeks ago,64406,w,SMA Sunny Boy 3000,11.1,55.5833,12.3,Denmark
Leraas,7155,2670,SE,3022,153 weeks ago,30809,,Energy Monitor,11.1,55.5833,12.3,Denmark
Raadhuset ID1,6720,2670,SE,539,126 weeks ago,77004,,Energy Monitor,11.1,55.5833,12.3,Denmark
Raadhuset ID2,6720,2670,N,540,126 weeks ago,77303,-,Delta,11.1,55.5833,12.3,Denmark
Raadhuset Samlet,6720,2670,SE,2996,127 weeks ago,77302,-,Delta,11.1,55.5833,12.3,Denmark
Henriksen Solar1,3400,1000,S,3550,Yesterday,12471,ZnShine,Eversolar TL3000,11.3,55.71795,12.441384,Denmark
Henriksen Solar2,3400,1000,S,3615,Yesterday,12472,ZnShine,Eversolar TL3000,11.3,55.717975,12.441384,Denmark
Home 24,5250,2610,S,448,17 weeks ago,93429,?,SMA Sunny Boy SB-2500HF-30,11.3,55.6806,12.4537,Denmark
Noerupvej28-Roedovre,9000,2610,S,3742,Yesterday,19565,Longbai Solar,Kostal piko 10.1,11.3,55.6806,12.4537,Denmark
Skin59-1,3185,2730,SW,1122,Yesterday,83467,Aleo,SMA Sunny Boy 3000,11.5,55.7237,12.44,Denmark
Skin59-2,3920,2730,SE,1117,Yesterday,83457,Aleo,SMA Sunny Boy 3000,11.5,55.7237,12.44,Denmark
Steen's solar,3510,2610,W,3138,88 weeks ago,15250,Monokrystalinske,SMA Sunny Boy 3000TL,11.5,55.686081,12.455734,Denmark
Kramer_dk,2500,2650,S,1701,164 weeks ago,8491,Simax,Enecsys,12.9,55.6572,12.4736,Denmark
Lav El Energi,6500,1000,S,2695,85 weeks ago,8858,ZNShine ZX250(48)MS,Danfoss 6kW TLX Pro+,12.9,55.714477,12.471327,Denmark
Ladan,19200,Sweden,S,1424,Yesterday,71718,Solarwatt Eco 60M Style,Fronius Symo,9.2,55.825323,13.06812,Sweden
LHJ-27,4000,2880,S,3161,149 weeks ago,4950,Simax SM266-250,Solutronics SP35,11.5,55.754772,12.46988,Denmark
Gripagården,16830,Sweden,S,2948,Yesterday,86725,Einova,SMA Tripower 15000 TLEE,1.1,55.785973,13.046908,Sweden
Villapooptek,20160,Sweden,SW,1425,Yesterday,76804,Trina Solar,STP SAM 20000TL-30,3.1,55.77597,13.077244,Sweden
Aroma,6300,Sweden,W,1121,Yesterday,81510,Longi Mono,SolarEdge,8.5,55.718442,13.018075,Sweden
Ädelstensvägen,11800,Sweden,S,1858,Yesterday,66855,Trina TSM-DD05A.05 (II),Fronius Symo 10.0-3M,11.0,55.748819,13.19531,Sweden
HaboLjung,14080,Sweden,SW,1605,Yesterday,72175,Trina Solar,SMA TriPower 25000TL,11.0,55.69559,13.058904,Sweden
AK_Test,50,1000,N,4108,Yesterday,16355,,Energy Monitor,1.5,55.6777,12.5709,Denmark
Almuevej 30 Skanderborg,7410,1000,S,3307,Yesterday,20139,SunGen SGM-195D,SMA Sunny Boy 3000TL-21,1.5,55.6777,12.5709,Denmark
Almuevej 30 Skanderborg-2,3705,1000,S,3093,11 weeks ago,20049,Sungen SGM-195D,SMA Sunny Boy 300TL-21,1.5,55.6777,12.5709,Denmark
Cordua5200,5200,1000,SW,2872,21 days ago,12725,znshine,eversolar,1.5,55.6777,12.5709,Denmark
Costa Kalundborg,6860,4400,EW,2954,141 weeks ago,19543,Bosch,SMA Sunny Boy 3000,1.5,55.6777,12.5709,Denmark
Eliselund,4000,1000,S,2993,Yesterday,18321,ZN Shine Solar ZXM5 (BK)?96,EverSolar TL-2000,1.5,55.6777,12.5709,Denmark
Eliselund-1,2000,1000,S,3102,Yesterday,18322,ZN Shine Solar ZXM5 (BK)?96,EverSolar TL-2000,1.5,55.6777,12.5709,Denmark
Eliselund-2,2000,1000,S,3087,Yesterday,18323,ZN Shine Solar ZXM5 (BK)?96,EverSolar TL-2000,1.5,55.6777,12.5709,Denmark
Hasselnuts powerplant,4680,1000,E,1986,Yesterday,16715,Risen,SMA Sonny Boy 3600,1.5,55.6777,12.5709,Denmark
KnudAggersVej12A,3000,1000,S,2787,14 weeks ago,12677,ZNSHINE ZX200(37)MS Black (GA),EverSolar TL3000-10,1.5,55.6777,12.5709,Denmark
LHJ 31,4000,1000,S,3047,146 weeks ago,15770,Simax 266-250,Solutronic SP35,1.5,55.6777,12.5709,Denmark
Lundebakkevej,3900,1000,S,2934,Yesterday,21048,,Fronius,1.5,55.6777,12.5709,Denmark
MR SOL-1,2990,1000,SE,4081,10 days ago,17606,ZNShine Solar ZXP6 (BK),Evershine TL3000,1.5,55.6777,12.5709,Denmark
MR SOL-2,2760,1000,SE,4087,10 days ago,17608,ZNShine Solar ZXP6 (BK),Evershine TL3000,1.5,55.6777,12.5709,Denmark
PlantageAlle,8181,1000,SE,4033,Yesterday,16209,mix,Solutronic,1.5,55.6777,12.5709,Denmark
PlantageAlle-Oest1 (mppt1),2100,1000,E,4033,Yesterday,16175,Sungen,Solutronic,1.5,55.6777,12.5709,Denmark
PlantageAlle-Oest2 (mppt2),2400,1000,N,4033,Yesterday,16180,Sungen,Solutronic,1.5,55.6777,12.5709,Denmark
PlantageAlle-Syd (mppt3),3600,1000,S,4033,Yesterday,16181,Sungen,Solutronic,1.5,55.6777,12.5709,Denmark
Sol-EL-01,2640,1000,SW,2392,Yesterday,15438,SEE AS2,SMA Sunny Boy 2500HF,1.5,55.6777,12.5709,Denmark
Sol-EL-02,2640,1000,SW,2539,Yesterday,15439,SEE AS2,SMA Sunny Boy 2500HF,1.5,55.6777,12.5709,Denmark
stollenwerk,3680,1000,SE,2393,136 weeks ago,9252,Canadian Solar csi/cs6p,delta solivia 3.3,1.5,55.6777,12.5709,Denmark
Berthelsen_CPH,6630,2300,S,4511,Yesterday,5955,LG255S1C,SMA Sunny Boy 3000TL-20,2.2,55.64257,12.62578,Denmark
KV15-1,4250,2770,S,2457,27 weeks ago,27125,ZN-Shine,SMA SB3000TL21,1.2,55.6333,12.65,Denmark
KV15-2,4250,2770,S,2233,27 weeks ago,27126,ZN-Shine,SMA SB3000TL21,1.2,55.6333,12.65,Denmark
Sandkåsvej-Frede,6660,2770,N,2086,155 weeks ago,37701,Pico,Pico,1.2,55.6333,12.65,Denmark
SMHOME,19750,Sweden,S,1056,Yesterday,85064,Trina Solar,SolarEdge SE25K,11.0,55.633326,13.191576,Sweden
Ritaregranden,19500,Sweden,S,2854,Yesterday,39200,OSDA Solar,Solaredge,12.2,55.725008,13.21695,Sweden
Agdelundsvagen6,7410,Sweden,S,718,Yesterday,90490,Trina,SolarEdge,15.9,55.685121,14.205666,Sweden
Plikiai,11280,Lithuania,S,574,2 days ago,95179,Jinko,FoxEss G3T15,2.4,55.800702,21.293864,Lithuania
Solar PV Company,3960,KA1,SW,3274,Yesterday,11812,Sanyo HIT 220,Fronius & SolarEdge Optimisers,6.5,55.602779,-4.505621,United Kingdom
SittinChillyInKillie,4000,KA1,S,4256,33 weeks ago,6266,Sunrise SR-M660250,SMA Sunny Boy 4000TL-20,7.6,55.615893,-4.513861,United Kingdom
Dundonald,8835,KA2,S,1801,Yesterday,68218,JA Solar,SolarEdge 4000  4000,9.4,55.59,-4.56,United Kingdom
SunDoon,3840,KA7,SW,4675,Yesterday,2946,Kyocera,Fronius 3.6 TL,20.2,55.44,-4.62,United Kingdom
Aamosevaenget 16,5130,6710,S,4265,Yesterday,20479,Trina 190 W,SMA SB 3000TL-21/2000 HF-30,11.1,55.511546,8.39524,Denmark
SMA SB 3000TL-21,3230,6710,S,942,Yesterday,87489,Trina 190 W,SMA SB 3000TL-21,11.1,55.511634,8.395089,Denmark
SMA SB 2000 HF-30,1900,6710,S,941,Yesterday,87488,Trina 190 W,SMA SB 2000 HF-30,11.1,55.511653,8.394966,Denmark
Edelsvej,5200,6700,S,1731,Yesterday,16338,TopperSun TS-M260B,Kostal PIKO 5.5,11.9,55.478708,8.459027,Denmark
EgeAlle,6000,6710,S,796,Yesterday,89355,N/ZXM5-200W 200 W,Ever TL-3000,20.5,55.4061,8.6394,Denmark
Lunderskov - AAparken 54,6000,6640,SW,4210,2 days ago,15568,Ningbo Qixin (SL250CE-48M),Sunways NT3000,10.1,55.487682,9.29878,Denmark
Ejersmindevej1-EastWest,3360,6640,EW,1721,48 weeks ago,53702,Unknown,Eversun,10.6,55.4833,9.3,Denmark
Almind-INV2-Egev?nget 35,3000,6051,S,4164,Yesterday,16097,STP 250S-20/Wd,SMA Sunny boy 3000,12.2,55.565738,9.478992,Denmark
Almind-INV1-Egev?nget 35,3000,6051,S,4161,Yesterday,15944,STP 250S-20/Wd,SMA Sunny Boy 3000,12.2,55.565751,9.479019,Denmark
Almind-Master-Egev?nget 35,6000,6051,S,4164,Yesterday,16276,STP 250S-20/Wd,SMA Sunny Boy 3000,12.2,55.565776,9.479042,Denmark
Magnolievej,4500,6000,S,3972,Yesterday,15966,Ulica solar,Goodwe GW3000-SS GW1500-SS,13.6,55.499776,9.452575,Denmark
Goldbaekparken 86,1100,6000,SW,614,Yesterday,52589,Unknown,Samilpower,15.2,55.4904,9.4722,Denmark
Klintevej 5,4500,6000,S,4113,Yesterday,11644,UL-250M-60,Goodwe GW3000-SS GW1500-SS,17.0,55.481256,9.495272,Denmark
Fredericia Feiyue 1st,2000,7000,S,3948,Yesterday,11357,ZNSHINE ZX200(37)MS,Eversolar TL 2000,18.6,55.5657,9.7526,Denmark
TreldeNaesvej 11,4680,7000,S,1221,42 weeks ago,53364,Alex Solar 195 24D,Enesys,18.6,55.5657,9.7526,Denmark
Vissenbjerg_4A,5760,5492,E,2929,Yesterday,45409,Powerwell - BW-SM250M60,enecsys - SMI-D480W-60,22.4,55.3833,10.1333,Denmark
Baardesoe,3600,1000,SW,3980,Yesterday,15127,Unknown,Delta Solivia,22.7,55.569581,10.408844,Denmark
Ugerlose,5060,4350,S,2777,153 weeks ago,16217,Bosch 99 cm x 166 cm ,Sonny Boy 2500,5.4,55.588169,11.653673,Denmark
Falkereden,4160,4180,S,1847,75 weeks ago,52908,JA Solar ,Fronius Symo 3.7.0,16.4,55.4318,11.5555,Denmark
Kongsmarkvej,3510,4200,EW,1095,123 weeks ago,81387,ZNShine/YELLUX YL M5-72-195,SMA/SB3000TL-21,23.8,55.4028,11.3546,Denmark
Sommer22,5750,4200,W,481,2 days ago,93257,EG-250P60C,Growatt,23.8,55.4028,11.3546,Denmark
Sommer27,6400,4200,E,618,Yesterday,93183,0,Growatt SPH,23.8,55.4028,11.3546,Denmark
Hyllehoej 4 DK,4000,4623,S,4059,35 weeks ago,45668,Ningbo Qixin SL250CE-48M 250W,2xSMA Sonny Boy 2000HF  2 0 kW,7.0,55.5167,12.15,Denmark
Sol-EL,5060,2680,SW,4433,Yesterday,7082,SEE AS2,SMA Sunny Boy 2500HF,8.4,55.51532,12.205798,Denmark
DK-4130 Hestehavevej 16,6000,4130,NW,1995,108 weeks ago,47598,Proven Energy 11 Wind Turbine,SMA Sunny Boy 6000A,8.6,55.516241,12.052097,Denmark
Magnolie02,3000,4600,SW,3672,42 weeks ago,17738,ZNShine STINGRAY,EverShine/EverSolar TL-3000,10.6,55.486855,12.177369,Denmark
Magnolie01,3000,4600,SW,3675,42 weeks ago,17736,ZNShine STINGRAY,EverShine/EverSolar TL-3000,11.5,55.478295,12.176682,Denmark
SunnyNiels,6125,4140,S,4305,8 days ago,65802,Viessmann,SMA Sunny Boy 2500,12.8,55.5,11.9833,Denmark
Oxie,7000,Sweden,S,4198,2 days ago,12273,ZNShine ZX250(48)M 250 Watt,Sungrow SH10RT,5.4,55.530125,13.089653,Sweden
Regeringsgatan7Anderslöv,9000,Sweden,S,1257,37 weeks ago,74260,Solarwatt,Fronius SYMO 8.2-3-M,20.7,55.441176,13.314368,Sweden
Nelena 5,2000,Sweden,SE,2676,Yesterday,49910, ET-M660255BB ET ,Enphase M215,16.6,55.43121,13.81603,Sweden
Rundelsgatan16Skurup,14200,Sweden,S,1109,Yesterday,86697,Suntech full black,Solaredge se10k,24.5,55.485416,13.500191,Sweden
StarkovoSolarSystem,2480,Russia,S,1534,Yesterday,69531,rzkp,MPPSolar,6.5,55.554569,38.299483,Russia
1500W vest,1500,6500,W,2230,64 weeks ago,24131,UL UM-250-60,Growatt 1500TL,19.8,55.25,9.3167,Denmark
3000W Syd,3000,6500,S,2236,64 weeks ago,24012,Ulica Solar UM-250-60,Growatt 3000TL,19.8,55.25,9.3167,Denmark
CPET_DELTA,5760,5000,N,534,2 days ago,93897,,Delta Solivia 2.5,5.9,55.3959,10.3883,Denmark
RobinSamse,8775,5690,S,1042,7 weeks ago,82907,Bosch M48S,SMA Sunny Boy 3000HF,8.1,55.3167,10.2167,Denmark
RobinSamse Inverter 2,4290,5690,N,1015,7 weeks ago,82906,Bosch M48S,SMA Sunny Boy 3000HF,8.1,55.3167,10.2167,Denmark
RobinSamse Inverter 1,4485,5690,N,1013,7 weeks ago,81422,Bosch M48S,SMA Sunny Boy 3000HF,8.1,55.3167,10.2167,Denmark
Stavkaervej 156,6000,1000,S,995,Yesterday,17433,?,Eversolar 3000,11.3,55.323737,10.479101,Denmark
Stavkaervej 156-2,3000,1000,S,1663,Yesterday,17403,?,Eversolar 3000,11.3,55.323765,10.479129,Denmark
Stavkaervej 156-1,3000,1000,S,1684,Yesterday,17383,.,Eversolar 3000,11.3,55.323768,10.479134,Denmark
Torben5247,3000,4700,S,3014,160 weeks ago,16142,Ulica,Growatt 3000TL,14.3,55.239326,11.765554,Denmark
Sealand,2400,4700,S,393,87 weeks ago,85601,,GoodWe GW4000-SS,15.4,55.2299,11.7609,Denmark
heeringvej sb3000-2,3600,4690,W,695,Yesterday,16906,Megasol M200-72-W/B,SMA Sunny Boy 3000TL-21,16.2,55.312833,12.068675,Denmark
heeringvej sb3000-1,3600,4690,E,922,Yesterday,16905,Megasol M200-72-W/B,SMA Sunny Boy 3000TL-21,16.2,55.312849,12.068707,Denmark
Gammeltoft 21 b,1950,3790,S,3739,Yesterday,17547,Upsolar,Danfoss ULX 1800i,21.8,55.1833,14.7167,Denmark
Gammeltoft 21 a,1950,3790,S,3728,Yesterday,17194,UpSolar,Danfoss ULX 1800i,22.3,55.178035,14.71843,Denmark
Gammeltoft 21,3900,3790,S,3675,Yesterday,17785,UpSolar,Danfoss Ulx 1800i,22.3,55.178035,14.718408,Denmark
fb85f33c,3720,Ireland,EW,1030,59 weeks ago,84132,Longi,Solis Ginlong,24.1,54.965103,-7.691889,Ireland
Bellinghameye,3792,NE48,S,3769,10 weeks ago,11259,Romag/STM6 (60) 230,SMA/SB4000TL,2.8,55.13,-2.25,United Kingdom
Woodhorn,4225,NE63,S,1347,Yesterday,78610,Sunpower P3,Solis 4G,6.5,55.17,-1.56,United Kingdom
psimonkey,4440,NE26,S,378,Yesterday,92441,JA Solar JAM60S21-370MR,GivEnergy,10.5,55.053239,-1.468627,United Kingdom
McPat,3960,NE25,S,1657,Yesterday,68000,Canadian Solar CS1H-330MS-BF,SolarEdge SE3680H-RW000BNN4,10.9,55.05,-1.48,United Kingdom
Capital,4000,NE25,SW,456,26 weeks ago,93092,Monocrystalline Gallium 8.250,Aurora Power One,10.9,55.05,-1.48,United Kingdom
North Shields,3924,NE29,W,4574,3 days ago,4473,Hitachi,sma,15.3,55.01,-1.46,United Kingdom
GeordieGen1,4000,NE28,EW,4595,Yesterday,8688,Hyundai,SMA 4000tl,16.6,55.0,-1.51,United Kingdom
Cloverdale,3000,NE7,SE,553,3 days ago,17903,JA Solar JAM50-250,SMA Sunny Boy 3000,17.7,55.0,-1.57,United Kingdom
Mellemtoften 3,4160,6430,SW,4015,3 days ago,14907,Dansolar DS-MS 260,SMA 3600 TL21,13.6,55.025403,9.834384,Denmark
Nedervej 2,4420,6430,SW,4004,Yesterday,20435,DanSolar/Schuco,SMA SB 4000TL-21,15.0,55.028123,9.716982,Denmark
Vielsoee-Rasmussen,6000,6470,S,661,Yesterday,90206,Danfoss,Danfoss TLX PRO,19.8,54.9698,9.8136,Denmark
Sol over Svendborg,6500,5700,EW,3222,Yesterday,39123,,Energy Monitor,9.1,55.068016,10.612671,Denmark
Braten,5500,5700,S,1452,166 weeks ago,51022,sun,Enecsys,9.9,55.0598,10.6068,Denmark
Aloaha Enecsys 2000007652,4800,5882,S,2479,104 weeks ago,38123,Aloaha Dataservices.Solar,Enecsys 240,10.3,55.1,10.7167,Denmark
Vindeby,4500,5700,SE,2709,Yesterday,45958,REC250PE,Enecsys,11.4,55.0473,10.614198,Denmark
Thuroe 1,5000,5700,W,3271,Yesterday,36558,Chinise,Enecsys 480,12.9,55.04805,10.682846,Denmark
Strammelse inverter 2,3000,5700,S,3722,Yesterday,5618,Sunrise Solartech SR-M660250,Danfoss ULX3000i HV,15.5,55.008175,10.581045,Denmark
Strammelse inverter 1,3000,5700,S,3722,Yesterday,5614,Sunrise Solartech SR-M660250,Danfoss ULX3000i HV,15.5,55.008167,10.580997,Denmark
Vestmarkhuset Drejoe,6630,5700,SW,4025,Yesterday,18910,Rec 255PE,SMA Sunny 6000 TL,22.2,54.972972,10.407739,Denmark
Kodrivervej,7000,4750,S,3211,50 weeks ago,17945,JA solar JAM5(L)(BK)-72-200/SI,Eversolar TL3000,13.2,55.1167,11.8833,Denmark
Kodrivervej-2,3000,4750,S,3200,50 weeks ago,17169,JA solar JAM5(L)(BK)-72-200/SI,EverSolar TL 3000,13.2,55.1167,11.8833,Denmark
Moellebakken,3900,4735,E,3928,15 weeks ago,12865,LG 260S1C,SMA SB3600TL21,13.6,55.027949,12.040727,Denmark
Busebjerg,6000,1000,S,3466,Yesterday,18878,Don't know,JFY JSI-3000TL,17.5,55.10364,11.820056,Denmark
Kodrivervej-1,4000,4750,S,3109,50 weeks ago,16386,JA solar JAM5(L)(BK)-72-200/SI,EverSolar TL 3000,17.9,55.120101,11.807353,Denmark
Dyndevang 3,1330,3700,S,552,Yesterday,94306,china,Danfoss 1800 LW,23.3,55.1,14.7,Denmark
CorduaSolar1,2800,1000,SW,3010,21 days ago,11591,znshine,eversolar,23.6,55.117828,14.709374,Denmark
CorduaSolar2,2400,1000,SW,2869,21 days ago,11945,znshine,eversolar,23.6,55.117828,14.709374,Denmark
Dyndevang,4180,3751,S,3870,Yesterday,17391,China,Danfoss,8.1,55.112968,14.982863,Denmark
Dyndevang 2,2660,3751,S,3932,Yesterday,17143,China Panels,Danfoss 3600,8.1,55.112944,14.98281,Denmark
Dyndevang 1,1520,3751,S,3946,Yesterday,16921,china,Danfoss 1800,8.1,55.112832,14.982665,Denmark
Energi Snorrebakken,7000,1000,SE,3614,27 days ago,16993,,Energy Monitor,22.8,55.107537,14.743385,Denmark
KillalooPV,4000,BT47,S,3592,Yesterday,31056,REC 250 PE,SMA Sunny Boy 3600TL,3.7,54.938494,-7.187491,United Kingdom
Monty77REN,3300,BT40,S,3640,Yesterday,30210,renesola,samila,15.7,54.84,-5.82,United Kingdom
JB Old Array 1,400,BT38,S,3362,40 weeks ago,29243,diy,mastervolt soladin 600,24.6,54.73,-5.79,United Kingdom
JB Parent,825,BT38,S,645,Yesterday,92295,mix,soladin /growatt,24.6,54.73,-5.79,United Kingdom
PolHo2011PV,3995,CA7,SW,2881,Yesterday,46446,Sanyo HIT H-250,SMA Sunny Boy 4000TL,17.8,54.8,-3.23,United Kingdom
Solar River 1,1000,DH3,S,3369,Yesterday,34828,SHARP ND-250A5,Solar River 1100 TL,22.1,54.87,-1.56,United Kingdom
Aurora Inverter 1,3000,DH3,W,3368,Yesterday,34738,SHARP ND-250A5,Aurora PVI-3.0-OUTD-UK ,22.1,54.87,-1.56,United Kingdom
Slaley,5460,NE38,E,370,9 weeks ago,100997,Jinko Tiger Pro 54c N-Type ,FoxEss Hybrid H1-5.0-E,24.0,54.89,-1.52,United Kingdom
KevHky - SEAHAM,3360,SR7,S,4272,2 days ago,9807,REC,Powerone Uno,18.1,54.83,-1.36,United Kingdom
Stevninghus-Solar,7200,6200,S,734,133 weeks ago,70783,Enecsys,Enecsys,5.8,54.954823,9.424438,Denmark
RaunEL,1500,Germany,SE,3892,Yesterday,23085,,Energy Monitor,15.1,54.796405,9.322157,Germany
DK_Graasten,4000,6300,S,4119,Yesterday,14707,Topsolar tsm54-156p,Delta,18.1,54.941689,9.625194,Denmark
Gletscherbogen,7020,Germany,S,563,Yesterday,94584,Trina Vertex S TSM-DE09.05,Fronius Symo 6.0-3-M,19.2,54.760634,9.381402,Germany
PVMLA,8140,Germany,S,825,Yesterday,89010,LONGi Hi-MO4m LR4-60HIH,Fronius Symo Gen24 8.0,19.2,54.760368,9.381552,Germany
Wieselhof,3900,Germany,S,3278,6 weeks ago,37724,Renesola Virtus,SMA SB 4000,20.8,54.748034,9.405694,Germany
Rosengarden,5760,4990,W,1877,Yesterday,66354,LG320N1K-V5,Stecagrid 5003,15.2,54.8,11.65,Denmark
BodehavegaardA,3000,1000,S,3873,Yesterday,18585,Znshine,Eversolar TL 3000 11,20.5,54.83969,11.867016,Denmark
Bodehavegaard Samlet,6000,4873,S,3141,Yesterday,20382,Znshine,Eversolar TL 3000 11,20.5,54.839659,11.867163,Denmark
BodehavegaardB,3000,1000,S,3873,Yesterday,18587,Znshine,Ever solar tl 3000 11,20.6,54.839776,11.867435,Denmark
Sembakken Samlet,6000,4800,E,3972,Yesterday,20137,Znshine,Eversolar TL 3000 10,22.5,54.812306,11.87209,Denmark
SembakkenB (104N),3000,4800,E,4182,Yesterday,15063,Znshine,Zever solar Evershine 3000TL,22.5,54.81224,11.872112,Denmark
SembakkenA (127S),3000,4800,E,4170,Yesterday,14938,Znshine,Ever solar Evershine 3000TL,22.5,54.812196,11.872219,Denmark
Saules Elektrine,14640,Lithuania,S,1687,Yesterday,70920,33xBisol300w & 12xJasolar395w,Fronius ,17.0,54.938731,23.835204,Lithuania
Mano Romainiai 13 kW,13230,Lithuania,E,1809,Yesterday,74527,,Fronius,17.0,54.935347,23.835827,Lithuania
Laur?,4905,Lithuania,NW,685,13 weeks ago,90520,Swisssolar,Fronius,23.1,54.849092,23.899598,Lithuania
Recionys SE 2kW,2040,Lithuania,NW,1532,10 days ago,58139,12x170W,pip2424GE,15.3,54.866557,24.528062,Lithuania
Draugystes PV,24240,Lithuania,S,437,Yesterday,92987,Risen,Fronius,20.2,54.906327,24.005148,Lithuania
AVSaule Kaunas,10320,Lithuania,S,2403,Yesterday,53891,Trina Solar & LONGi,Fronius Symo,22.8,54.906793,23.964498,Lithuania
Tomo elektrine,8910,Lithuania,W,1550,2 days ago,74516,SoliTek Standard P60 - 270,HUAWEI SUN 2000-10KTL-M0,17.6,54.824223,25.267761,Lithuania
Pamiskes Saule,25330,Lithuania,S,1484,Yesterday,74520,canadian solar 295w poly,Fronius Symo 10.0-3-M,19.1,54.789552,25.234234,Lithuania
GVPower,9920,Lithuania,S,1403,Yesterday,77594,Solitek,Fronius,20.9,54.755217,25.176802,Lithuania
Saulute Vilnius Lithuania,9900,Lithuania,S,411,156 weeks ago,75261,Viessman 300,SE15K,20.9,54.762894,25.210759,Lithuania
Killywatt,6500,BT79,SW,4217,Yesterday,22850,Rec,SMA,19.8,54.608854,-7.274394,United Kingdom
shedpv,440,BT80,S,611,108 weeks ago,20495,Navitron 55w Framed Panel,Soladin 600,8.8,54.64,-6.74,United Kingdom
Ballyclare Power,4000,BT39,SW,4038,Yesterday,36091,HyundaiB HiS-S250MG(BK),Enecsys SMI-D480W,3.0,54.74,-6.01,United Kingdom
GreenAcres,4000,BT36,SE,2420,56 weeks ago,20146,ET Solar,Aurora Power One Uno 3.6,7.3,54.67,-5.95,United Kingdom
Aloaha Enecsys 2000031260,6500,BT37,EW,3317,Yesterday,36338,Aloaha Dataservices.Solar,Enecsys 480,9.9,54.67,-5.9,United Kingdom
LargyPV,4000,BT29,SW,2611,Yesterday,42586,Perlight,Grow at 3600TLX,14.3,54.655368,-6.226736,United Kingdom
5a Walls,4340,BT18,S,1369,Yesterday,78531,JA310w,SolarEdge Three Phase Hybrid,16.0,54.64,-5.82,United Kingdom
Massey Microvinerters,3900,BT4,S,2595,Yesterday,51358,Sharp,Enphase,17.0,54.6,-5.86,United Kingdom
Stormont 4kW Hub,3900,BT4,S,3317,90 weeks ago,36351,LG ,Enphase M250,20.9,54.59,-5.79,United Kingdom
CranleyMagic-GivEnergy,4760,BT19,SE,624,Yesterday,93127,Q.CELLS DUO BLK-G9 340 R1,GivEnergy GIV-HY-5.2 Gen2,24.0,54.646749,-5.639505,United Kingdom
Lake District Coast Aquarium,38400,CA15,N,570,149 weeks ago,69640,Solis,Solis,20.4,54.71,-3.48,United Kingdom
Power-for-free,4000,CA11,SE,3091,14 days ago,42592,SunSolar,Solis,12.3,54.701217,-2.861938,United Kingdom
Glasclune,3600,CA11,SW,1606,Yesterday,71197,dont know,SunnyBoy,18.6,54.66,-2.78,United Kingdom
Home Solar Durham,3270,DH1,SW,4422,Yesterday,6410,SUNPOWER SPR-327NE-WHT-D,SMA SB3000HF,7.1,54.78,-1.56,United Kingdom
hilltopsolar,3290,DH6,S,4555,Yesterday,4592,ET,eversolar 4000,8.2,54.771889,-1.477509,United Kingdom
3-way split,4000,DL3,S,3099,21 days ago,35955,8.33 Solar Eternity 250W,SolarEdge SE3500,20.7,54.53,-1.57,United Kingdom
SWH Home,2700,DL1,S,1571,Yesterday,72329,Ysingh,Aurora,20.8,54.53,-1.53,United Kingdom
ARL Solax,1350,DL2,S,1620,Yesterday,72322,Using,Solax,22.0,54.52,-1.6,United Kingdom
ARL Home,300,DL2,S,1620,Yesterday,58840,Unknown ,Soladin 600,22.0,54.52,-1.6,United Kingdom
Luzy@Solaredge,19730,Germany,S,2642,Yesterday,50755,Solarworld 280W,Solaredge SE12.5K,20.2,54.653445,9.159565,Germany
Luzy@Youless,19730,Germany,S,2645,Yesterday,50722,SW 280,Solaredge SE12.5K,20.2,54.653439,9.159564,Germany
haukesch Sued,5440,Germany,S,459,Yesterday,97153,Aleo x63/340,Fronis Symo 5.0 -3M,22.8,54.52926,9.010876,Germany
haukesch West/Ost,9600,Germany,EW,436,Yesterday,97702,Aleo Solarmodul S59HE/300,Fronius Symo 7.0 -3M,22.8,54.529244,9.01086,Germany
gerdi,7995,Germany,S,3934,Yesterday,25739,,Energy Monitor,1.0,54.724248,9.602075,Germany
PapasSolarEdge,21000,Germany,N,607,Yesterday,94401,Longi HI-MO4m,SE 17k,22.5,54.578094,9.354687,Germany
s10,9900,Lithuania,S,1167,Yesterday,83487,Solitek,ABB TRIO-7.5-TL-OUTD,3.6,54.686931,25.271988,Lithuania
Sauletekis,11050,Lithuania,NW,400,Yesterday,98610,TrinaSolar/Vertex S,SolarEdge/SE10K,5.9,54.719156,25.34121,Lithuania
PavSau,10540,Lithuania,E,1345,Yesterday,78984,Ja Solar JAM60S10 MR 340,Fronius Symo 10.0-3-M,8.8,54.661918,25.350609,Lithuania
Solared?as,12580,Lithuania,S,581,Yesterday,94014,Sharp NU-JC,Solaredge SE17k,8.9,54.659976,25.347562,Lithuania
VilniusPavilnys,8200,Lithuania,S,566,Yesterday,93971,Ja solar,Sofar 8.8ktlx-g3,9.0,54.660875,25.351553,Lithuania
abyss25,7040,Lithuania,SE,1809,Yesterday,68068,REC REC320NP,Solaredge SE7K,12.3,54.675259,25.427213,Lithuania
Busiai,17940,Lithuania,SE,809,Yesterday,89446,Risen RSM40-8-390MB,Huawei  12kW + InfiniSolar 3kW,14.2,54.607552,25.133543,Lithuania
E? Saul?s Elektrin?,10000,Lithuania,SW,678,Yesterday,92264,Trina Vertex S TSM-DE09.08,Fronius Symo 10.0-3-M,14.9,54.59134,25.164759,Lithuania
sharp 370W Daniliskes Vilnius,10360,Lithuania,S,1013,Yesterday,85672,Sharp,Fronius,15.0,54.593475,25.154357,Lithuania
GKA Saule,4810,Lithuania,SW,791,Yesterday,90057,Sharp NU-JC370,Fronius Symo 7.0-3-M,15.0,54.590681,25.164185,Lithuania
Trakai K,28910,Lithuania,S,2571,103 weeks ago,30164,Alex,Aurora,22.2,54.63935,24.931166,Lithuania
Hame,3750,BT23,SW,2375,27 weeks ago,41333,Solarworld SW 250 mono black,ABB UNO PVI-3.6,6.8,54.56,-5.71,United Kingdom
Larchview-A,3990,BT24,S,1307,120 weeks ago,48225,SolarWorld,Sunny Boy 3600TL-21,18.7,54.418391,-5.936605,United Kingdom
GM_Kendal,4290,LA9,S,916,Yesterday,88894,Trina Vertex-S,Solax X1-Boost 3.6T,20.1,54.32,-2.74,United Kingdom
Elderberries in Kirkby,3200,CA17,SE,562,Yesterday,94893,Viridian Clearline Fusion PV16,Solaredge SE3680H,24.1,54.467829,-2.351804,United Kingdom
Homestead,4000,DL12,E,1618,18 weeks ago,30434,JA Solar,SMA Sunny Boy 3600TL,7.7,54.57,-1.98,United Kingdom
Southwood Solar,3920,TS8,W,4373,Yesterday,6986,Hyundai His- s245mg black,PVI 3600 outdoor UK,2.2,54.52,-1.23,United Kingdom
asghar panels,4000,TS5,SW,4463,5 weeks ago,6090,canadian panels,sunny roo 4000,4.5,54.540115,-1.253675,United Kingdom
Aylton Solar,2200,TS5,S,2817,Yesterday,24464,Canadian Solar CS5A-200M ,Solis 1.5,5.5,54.55,-1.25,United Kingdom
Aylton Solar SOUTH,1600,TS5,S,1123,9 weeks ago,56984,xxxxxx,SamilPower SolaRiver,5.5,54.55,-1.25,United Kingdom
xion2000 Garage Solar East,1750,TS5,E,4024,Yesterday,16162,Canadian Solar CS6P-250M,SamilPower SolarRiver 2300TL,5.5,54.547974,-1.266582,United Kingdom
xion2000 Shed Solar,780,TS5,E,3493,Yesterday,26277,Hareonsolar HR-260P-18/Bb ,Solis Mini 700 4G,5.5,54.548014,-1.266534,United Kingdom
xion2000 Gas,50,TS5,N,4047,Yesterday,18155,Current Cost GaSmart (Type V),Actaris M3 Meter,5.5,54.548005,-1.266603,United Kingdom
xion2000 Garage Solar West,1750,TS5,W,4015,Yesterday,18205,Canadian Solar CS6P-250M,SamilPower SolarRiver 2300TL,5.5,54.548026,-1.266577,United Kingdom
xion2000 House Solar S&E,2430,TS5,S,784,Yesterday,26246,JA Solar JAM53S30-405/MR,Solis S6-GR1P2.5K ,5.6,54.548033,-1.266566,United Kingdom
xion2000 Hot Water,1500,TS5,E,2352,Yesterday,18989,myenergi eddi 2.1,2 x 2000w immersion,5.6,54.548033,-1.266571,United Kingdom
xion2000 Wood Burner Fan,50,TS5,W,3141,Yesterday,24468,,Unbranded GT-350,5.6,54.548033,-1.266577,United Kingdom
xion2000 House Solar West,1600,TS5,W,778,Yesterday,12057,JA Solar JAM53S30-400/MR,Solis S6GR1P1.5K-M,5.6,54.548033,-1.266598,United Kingdom
xion2000 Garage Solar,3500,TS5,E,4244,Yesterday,11144,Canadian Solar CS6P-250M,SamilPower SolarRiver 2300TL,5.6,54.548033,-1.266598,United Kingdom
xion2000 Solar TOTAL,8300,TS5,EW,3703,Yesterday,13551,Canadian Solar & JP Solar,2 x Samil Power & 3 x Solis,5.6,54.548042,-1.266582,United Kingdom
Woodland Glade,3995,DL6,S,3583,Yesterday,16971,Panasonic HIT N 235Wp,Solaredge SE3680,9.9,54.412528,-1.262841,United Kingdom
Battersby Station,3960,TS9,SE,2864,174 weeks ago,2270,Sharp NU-180 (E1),SMA Sunny Boy 3800,10.6,54.457468,-1.093658,United Kingdom
Osy_solar,3960,DL6,S,3766,114 weeks ago,12290,Moser Baer CAAP-BB 220 MAX,SMA 3600TL,15.2,54.3686,-1.299834,United Kingdom
PPAL,3192,DL7,SE,1521,Yesterday,74437,Talesun,Aurora Power One,19.8,54.360207,-1.427021,United Kingdom
Sharp/SMA,12150,Germany,SE,2842,136 weeks ago,15405,Sharp ND-225,SMA Sunny Tripower 12000TL,17.5,54.354367,9.232531,Germany
Kochendorf,6250,Germany,S,1620,19 weeks ago,66436,,Energy Monitor,7.7,54.477905,9.760602,Germany
PVSil,10830,Germany,SW,4529,Yesterday,15982,SunClass SC 190-72M,SMA STP 10000 TL-10,12.7,54.423149,10.017324,Germany
Sparfuchs,3450,Germany,SW,829,Yesterday,88917,,SMA SunnyBoy 4000 TL20,20.8,54.353668,10.072768,Germany
KK1,3750,Germany,N,3030,Yesterday,44320,EGing EG-250-P60-C,SMA Sunny Boy 3600TL,22.3,54.318425,10.015994,Germany
AmHohenUfer2,5049,Germany,S,3542,151 weeks ago,34472,,Energy Monitor,24.8,54.378262,10.934648,Germany
PatrykS-Bieszkowice,1170,Poland,E,861,Yesterday,87670,CanadianSolar CS5A-195M,SUN-500G,17.1,54.515021,18.287146,Poland
Janek,2400,Poland,NE,368,Yesterday,99378,TrinaSolar,Effekta ES 3300,13.7,54.423346,18.599124,Poland
Jelitkowo Wujek,1920,Poland,E,390,Yesterday,66209,HeckertSolar,Fronius IG30,13.7,54.423534,18.598834,Poland
PatrykS-Gda?sk,4030,Poland,S,933,Yesterday,86261,HT-SAAE HT60-156M-310,Sofar HYD3600-ES,17.4,54.392381,18.570532,Poland
marines pv,4620,Poland,SW,971,Yesterday,86427,REC,Fronius,21.1,54.342299,18.584039,Poland
Gda?sk-?ostowice,5985,Poland,SW,958,151 weeks ago,76383,Q.Cells Q.Plus G.4.3,Fronius Symo 6.0-3-M,24.3,54.307636,18.589265,Poland
Sunny Ulverston!,3995,LA12,S,4557,Yesterday,5007,Sanyo/HIT-N235SE10,SMA/SB4000TL,10.4,54.193743,-3.094269,United Kingdom
Solar Roof,3840,LA11,E,1649,Yesterday,69324,,Growatt,16.6,54.2,-2.92,United Kingdom
Finghall,3600,DL8,S,1964,Yesterday,63970,Q-Cells,Solar edge,4.6,54.302572,-1.720273,United Kingdom
Geo Solo II,50,TW7,N,365,174 weeks ago,66215,,Energy Monitor,9.6,54.369142,-1.620859,United Kingdom
EastYorks-9kWh,9630,YO15,S,1420,Yesterday,79289,Canadian Solar,SolarEdge,19.4,54.114238,-0.124369,United Kingdom
Solarpark Thomas,7680,Germany,S,639,Yesterday,87525,MSP250AS-27,EASUN iSolar,21.8,54.235136,8.986816,Germany
PVElsdorf-W,4800,Germany,SW,603,Yesterday,93088,Siliken,Aurora PVI 4.2,8.6,54.262182,9.525586,Germany
Sonnengeküsst,5400,Germany,SW,470,Yesterday,96878,Trina,MPP Solar PIP5048MS,3.8,54.319087,10.140381,Germany
4ke_Sonnenfang,4810,Germany,SE,5284,4 days ago,16070,SunClass,SMA Sunny Boy 5000,6.4,54.247198,10.062128,Germany
Jochen_MV,5760,Germany,S,1383,161 weeks ago,57102,LG / LG320N1C-G4,Fronius Symo 5.0-3-M,2.0,54.292709,13.112207,Germany
KoszalinCisowa,7125,Poland,S,515,Yesterday,95108,ZNSHINESOLAR ZXP6-TLD60-285/P,Growatt 6000 TL3-S,16.7,54.186749,16.226678,Poland
Pomysk Wielki,7920,Poland,SW,1812,Yesterday,66645,SPI,ABB Trio 7.5,11.4,54.184703,17.541122,Poland
Banino PL,5120,Poland,S,1542,Yesterday,73859,LONGI 315 & TRINA 330,Growatt 4000 TL3-S,16.8,54.405195,18.401253,Poland
PV Pruszcz GDA,4550,Poland,S,429,Yesterday,97835,JAM72S20 440-465/MR,Hoymiles HM-1500,21.3,54.267965,18.653648,Poland
SAD2,5920,Poland,S,540,49 weeks ago,87829,Winaico,Fronius,24.0,54.153991,19.422798,Poland
LingonberrySunStation,810,Lithuania,E,721,17 days ago,74782,SolarEdge,EASUN,3.7,54.26273,24.833125,Lithuania
F92-3CA,7200,Ireland,EW,456,Yesterday,97266,Trina Solar DE09-08 400W,Huawei SUN2000,24.8,53.857336,-9.284134,Ireland
Sheetrim,4030,BT35,S,1032,Yesterday,85400,JA Solar,SolarEdge 3680H,10.2,54.16,-6.44,United Kingdom
solarfash,3330,PR3,SW,717,133 weeks ago,60224,sunpower,Aurora,24.1,53.86,-2.71,United Kingdom
BR1,4000,LS29,SW,3710,Yesterday,5478,JA Solar JAM6-60-250,Fronius IGTL3.6,24.2,53.92,-1.8,United Kingdom
BR3,4000,LS29,SW,4241,Yesterday,6113,JA Solar JAM6-60-250,Fronius IGTL3.6,24.2,53.92,-1.8,United Kingdom
YO61-PV,4000,YO61,E,4387,Yesterday,7449,Conergy,Aurora OUTD-3.6-uk,9.8,54.102854,-1.19618,United Kingdom
Cornflower Way,6000,HG3,S,3645,Yesterday,28826,Sharp ND-R250 (A5),SolarEdge SE6000,18.5,54.03,-1.61,United Kingdom
York42,4640,YO31,S,709,Yesterday,91670,CanadianSolar,Enphase,21.7,53.96,-1.06,United Kingdom
Walker Generating Co.,4000,YO23,W,4325,Yesterday,10078,Suntech STP250-20,SMA 3600TL-20,21.8,53.92,-1.12,United Kingdom
Leconfield,3952,HU17,S,4550,Yesterday,4611,Samsung LPC247SM,SMA TL4000-20,24.0,53.87078,-0.459825,United Kingdom
glue_24,488,Germany,S,440,19 days ago,94484,m1,i1,5.9,54.04402,9.741182,Germany
Fitzbek,28045,Germany,EW,1081,Yesterday,84717,Q-Cells G6 355 Watt,Fronius 20.0-3-64P 5.0-3-M/15P,10.2,54.003229,9.769431,Germany
maulwurf 4000,4810,Germany,S,4639,73 weeks ago,87771,Jetion,SMA 4000,21.6,53.908276,9.478084,Germany
maulwurf gesamt,8510,Germany,S,4618,76 weeks ago,87779,Jetion,SMA,21.6,53.908269,9.478015,Germany
PVDaegeling,15470,Germany,S,1651,73 weeks ago,60295,,Energy Monitor,23.2,53.876087,9.530235,Germany
PV Ranger WR01,3200,Germany,SE,1581,Yesterday,73137,Shell PowerMax Plus,SMA Sunny Boy 3000,24.1,53.853871,9.700963,Germany
PV Ranger,6400,Germany,SE,1580,Yesterday,61630,Shell PowerMax Plus,SMA Sunny Boy 3000,24.1,53.853871,9.700971,Germany
PV Ranger WR02,3200,Germany,SE,1581,Yesterday,73133,Shell PowerMax Plus,SMA Sunny Boy 3000,24.1,53.853867,9.700963,Germany
Picolo,14400,Germany,S,690,Yesterday,92203,Trina Vertex S blackframe,Kostal Polo 15,22.7,53.988256,10.715082,Germany
SB-Solar,5760,Germany,S,4015,Yesterday,18485,,SMA Sunny Boy 5000 TL 20,20.6,53.908003,10.975366,Germany
hufe5,19600,Germany,SW,717,Yesterday,91291,Hyndai HiE-S400VG,Axpert MAX II,8.1,53.99766,11.882551,Germany
BeLove,9920,Poland,S,1695,Yesterday,70457,Longi,Zeversolar,10.4,54.147582,15.615747,Poland
SolarRiver3000TL3,3240,Poland,SE,1362,Yesterday,75905,JAM5-72-180,SolarRiver3000TL,16.1,53.943768,18.584018,Poland
SolarRiver3000TL123,9520,Poland,SE,1385,Yesterday,75722,JaSolar,SolarRiver3000TL,16.1,53.943768,18.584024,Poland
SolarRiver3000TL1,3135,Poland,SE,1364,Yesterday,75559,JAP60S10-285/SC,Solar River3000TL,16.1,53.943762,18.584029,Poland
SolarRiver3000TL2,3135,Poland,SE,1370,Yesterday,75647,JAP60S10-285/SC,SolarRiver3000TL,16.2,53.943765,18.584072,Poland
Violeta Grigalien?,4015,Lithuania,SW,1416,3 days ago,83094,Longisolar LR4-60HPH-365M,Fronius Symo 3.7-3-M ,20.5,54.030436,24.019053,Lithuania
Blackpool Anths PV,3990,FY2,SW,4737,Yesterday,1964,Phono Solar / PS190M-24F,SMA SB-2000HF (x 3),11.1,53.838845,-3.039136,United Kingdom
Blackpool Katy's PV,4860,FY2,SW,643,Yesterday,92984,Longi,SoFar HYD 3600-ES,11.2,53.82937,-3.03993,United Kingdom
Blackpool Darren's Rear PV,1920,FY2,SE,2835,119 weeks ago,29021,Panasonic (Sanyo),Samil SolarRiver 2300TL,11.6,53.84,-3.03,United Kingdom
Blackpool Darren's Side PV,1920,FY2,SW,2836,119 weeks ago,27649,Panasonic (Sanyo),Samil,11.6,53.84,-3.03,United Kingdom
Blackpool Darren's TOTAL PV,3840,FY2,S,2830,119 weeks ago,29022,Panasonic (Sanyo),Samil SolarRiver 2300TL x2,11.6,53.84,-3.03,United Kingdom
Blackpool Strathyre PV,3840,FY2,E,2155,37 weeks ago,2581,Phono Solar P5,SMA Sunny Boy 4000,11.8,53.852279,-3.025837,United Kingdom
Lytham Darren?s Roof PV,4050,FY8,SE,367,Yesterday,97988,Black Mono,Lux Greenlink Hybrid 3.6 / 7.2,17.8,53.75,-3.0,United Kingdom
GC_FY8,3250,FY8,S,1370,Yesterday,78053,Bosch,Growa,17.8,53.75,-3.0,United Kingdom
Lytham Darren?s Garage PV,1020,FY8,SW,437,Yesterday,97622,Q.PEAK DUO BLK-G6 340,Enphase IQ7+,17.8,53.75,-3.0,United Kingdom
22 Smithy Lane TOTAL PV,5265,FY8,SE,425,Yesterday,97990,Black mono,Lux Greenlink - Enphase micros,17.8,53.75,-3.0,United Kingdom
Meadowcroft,3800,PR3,S,4738,Yesterday,2119,Schott Mono,SMA Sunny Boy 4000,6.0,53.868134,-2.565307,United Kingdom
wellfield solar pv,3640,BB12,SW,2768,121 weeks ago,28936,kioto,aurora powerone 3.6,15.3,53.796215,-2.264858,United Kingdom
AndysHome,1410,PR2,SW,1035,Yesterday,52676,Canadian Solar,Samil 2300TL,17.4,53.77,-2.7,United Kingdom
stumima roof,8000,PR1,E,382,Yesterday,101631,,fox,18.7,53.75,-2.7,United Kingdom
Colne Cloud Central,4000,BB8,SW,3755,141 weeks ago,2775,Sanyo HIT-H250E01,SMA Sunny Boy 4000TL,20.8,53.85,-2.16,United Kingdom
Sunny Hurray,3430,BB4,E,4728,Yesterday,2490,Sharp NU 245,SMA Sunnyboy 3000 TL,20.8,53.68699,-2.333946,United Kingdom
Helmshore sun trap !,4000,BB4,SW,4026,Yesterday,14735,Suntech Mono STP250s-20/wd,Power One Aurora 3.6TL,20.9,53.686145,-2.333505,United Kingdom
Helmshore64,6120,BB4,EW,3339,Yesterday,37118,Solar Frontier SF170-S,Solar Edge SE5000,21.3,53.681907,-2.332744,United Kingdom
Sunny Boy SB3000HF-30,3420,PR25,S,4771,2 days ago,29273,Sharp,SMA,23.0,53.69,-2.69,United Kingdom
Sunny Askwith,3000,LS21,SW,2623,139 weeks ago,17559,Pangea 8.250 Gallium/Black,Power One 3.6 OUTD-UK,8.0,53.91,-1.67,United Kingdom
Yorkshire-Roof,5400,LS29,S,1646,5 weeks ago,84324,Bisol BMO,Solax X1-HYBRID-5.0-E,8.6,53.888862,-1.748028,United Kingdom
MenstonSolar,3840,LS29,S,1287,Yesterday,35513,REC,SMA,8.7,53.888268,-1.739595,United Kingdom
Yeadon Power Station,3500,LS19,S,3512,Yesterday,27032,Suntellite Mono Crystalline,Solis 3600,12.0,53.863417,-1.688851,United Kingdom
Caterham 7 Fund Generator,3920,LS19,S,4749,Yesterday,2155,Sharp NU-245(J5),SMA Sunny Boy 3000HF-30,12.2,53.863196,-1.684444,United Kingdom
Up North the sun don't shine,3920,LS17,S,4285,Yesterday,3220,REC PE Silver 245W,Power One Aurora PVI 3.6,2.5,53.85,-1.52,United Kingdom
HWay,2616,LS17,SE,3471,Yesterday,103106,SunPower SPR-327NE-WHT-D,SMA Sunny Boy SB 2500TLST-21,2.5,53.85,-1.52,United Kingdom
WaterlooCrescent,2880,LS13,SW,2116,Yesterday,59322,REC PeakEnergy Black 240pe,SMA Sunnyboy 3600,6.8,53.81,-1.63,United Kingdom
PostHillPhotonic,3840,LS12,S,3250,2 days ago,38467,Seraphim SRP-320-6MA,Solis 3.6-DT-DC,7.4,53.79,-1.59,United Kingdom
gazbiggs,3430,LS14,SE,4693,Yesterday,2863,Sharp NU245,Sunny Boy 3000TL-20,8.0,53.82,-1.45,United Kingdom
Rusholme Drive Farsley,3990,LS28,E,2967,92 weeks ago,29770,LG285N1C-A3,Enphase M250,9.0,53.8,-1.66,United Kingdom
BlueHouse,2640,LS27,SW,4609,27 weeks ago,3099,Romag SMT6 Powerglaz,SMA SunnyBoy 2500,10.8,53.759083,-1.589872,United Kingdom
Sunny Idle 1.66,1660,BD10,SW,2239,Yesterday,58924,LG NeON 2,Growatt 1500-S,11.0,53.83,-1.72,United Kingdom
Sunny Idle 2.04,2040,BD10,S,2880,Yesterday,46959,Eurener All Black Mono,SMA SB2500HF-30,11.0,53.83,-1.72,United Kingdom
Sunny Idle 7.31,7300,BD10,S,2119,Yesterday,61047,Multiple,Multiple,11.0,53.83,-1.72,United Kingdom
Dale2507Home,4000,LS26,W,903,86 weeks ago,47307,Samsung,SamilPower,12.7,53.749269,-1.478434,United Kingdom
HF Home Solar,3600,BD6,S,2131,23 weeks ago,28328,Panasonic VBHN240SE10,Power-One PVI-3.6-TL-OUTD,3.0,53.76,-1.78,United Kingdom
DrSeeAll,3920,BD11,W,4177,Yesterday,13064,JA Solar JAP 6 60,Aurora Power One PVI 3.6,5.2,53.75,-1.67,United Kingdom
Ainley Grange,4000,HX5,SE,2619,Yesterday,42125,SolarWorld SW 250,Enphase M215,8.8,53.68,-1.83,United Kingdom
Lindwell PV,2550,HX4,S,2714,26 weeks ago,10593,yling,sunny boy,9.4,53.689966,-1.860568,United Kingdom
MPF,4000,HD7,S,3439,154 weeks ago,5568,TBA,Mastervolt XS5000,11.9,53.643793,-1.863219,United Kingdom
Varkanoid,4160,WF3,S,513,Yesterday,95349,BenQ PM260,Goodwe GS3600-UK,3.5,53.72,-1.52,United Kingdom
Phil's SolarEdge System,3990,WF3,SW,3028,Yesterday,43234,Benq,Solaredge,5.4,53.716372,-1.48702,United Kingdom
ESZ SolarEdge PV,2450,WF3,E,4130,Yesterday,54014,Canadian Solar,SolarEdge,6.0,53.711216,-1.481478,United Kingdom
Greenways,4000,WF5,SE,2469,Yesterday,23440,Hyundai MGs-250S,Power One Aurora PVI 3.6,6.9,53.68,-1.57,United Kingdom
'Hey Up!' -  North,4000,WF2,W,3788,114 weeks ago,4595,Sanyo HIT250,SMA 3800,7.1,53.680321,-1.528411,United Kingdom
Steve & Zoe,3995,WF1,S,3603,5 weeks ago,5975,Sanyo,Sunny Boy 3600TL-20,7.4,53.693902,-1.478939,United Kingdom
Myrtle Avenue 2,4500,YO8,S,2785,Yesterday,48086,Yingli Solar YL250P-29b,Aurora Uno PVI-4.2-I-OUTD,8.5,53.78,-1.05,United Kingdom
Low Mill,5110,YO8,E,862,Yesterday,89595,JA,LuxPower LXP Hybrid 3600,8.5,53.78,-1.05,United Kingdom
Myrtle Avenue 61,4500,YO8,S,2786,Yesterday,48087,Yingli Solar YL250P-29b,Aurora Uno PVI-4.2-I-OUTD,8.5,53.78,-1.05,United Kingdom
The Plump Partridge,3360,LS24,SE,4708,Yesterday,2756,Solar Europa CHN280-72P,Fronius Primo 3.6-1,13.7,53.826151,-1.220818,United Kingdom
Green Acre,4000,HU15,S,3814,Yesterday,25724,Solarworld mono black,Solar River,21.8,53.752182,-0.733468,United Kingdom
BJT-SolarRiver-2300TL,2340,LS25,SW,1373,10 days ago,62429,JA-(*5)+1Other(LG),SolarRiver,22.1,53.78,-1.33,United Kingdom
Sunnyleeds,2000,LS25,S,3401,137 weeks ago,10493,JA SOLAR JAM5-72-200,SMA Sunny Boy 3000HF-30,24.4,53.79364,-1.375619,United Kingdom
reef-PV,9420,HU11,SE,489,2 days ago,103947,Sharp,Fox ESS H1-5.0-E and F3600,2.2,53.839386,-0.266376,United Kingdom
Turnitoff,50,HU17,N,3255,Yesterday,34080,,Energy Monitor,8.8,53.84,-0.42,United Kingdom
Freezcon,50,HU17,N,2597,72 weeks ago,40808,,Energy Monitor,8.8,53.84,-0.42,United Kingdom
Tickton Power,4455,HU6,W,764,Yesterday,91078,JA Solar,GivEnergy HY3.6,9.5,53.78,-0.36,United Kingdom
Mildred's Powerpack,4000,HU17,SW,3075,Yesterday,42898,Solarworld Sunmodule Plus 250,Fronius Primo 3.6,10.4,53.856,-0.446329,United Kingdom
DIY Solar,990,HU4,S,366,82 weeks ago,87031,Perlight PLM-330MB-60,Growatt 750-S,15.6,53.73,-0.4,United Kingdom
Home STCA,9480,HU13,E,437,Yesterday,91513,Tier1,Solis,17.6,53.72,-0.43,United Kingdom
DIY Zero Export 2.6kWh Battery,1900,HU13,NE,1407,Yesterday,77794,Perlight PLM-260PB-60 260W,SUN GTIL2,17.6,53.72,-0.43,United Kingdom
Goxhill,3000,DN19,S,3830,6 weeks ago,21990,Conergy 250M Noir,Samil SolarRiver 3000TL,19.6,53.679187,-0.331074,United Kingdom
The North Ferriby PV crew,3440,HU14,S,4833,Yesterday,6080,Sungrig SG-215M6,Sunnyboy 3.6,20.4,53.72,-0.5,United Kingdom
SouthbankTiger,4000,DN18,NW,4393,2 days ago,6125,Sharp NU R250J5,SunnyBoy,21.8,53.678055,-0.434035,United Kingdom
Norderney 566,5655,Germany,S,1739,Yesterday,69120,Würtz,SMA Sunny Boy 5000,19.6,53.711338,7.181822,Germany
SMWs_SMK_PCM60X,11220,Germany,S,2181,Yesterday,59760,MIX,PIPs (SMW+SMK+MSD) and PCM60X,12.1,53.789116,8.611589,Germany
Hammelwördenermoor,7750,Germany,E,587,94 weeks ago,78292,Viessmann M310 PB blackframe,SMA Tripower 8.0,10.8,53.773839,9.287728,Germany
BVK-BAT,5000,Germany,N,1137,Yesterday,55967,SMA,SBU5000,7.5,53.809343,10.008226,Germany
BVK,11310,Germany,N,1138,Yesterday,55962,IBC,SMA,7.5,53.808937,10.007968,Germany
LUTZ,6720,Germany,EW,2869,Yesterday,35310,king solar kd-p 240,SMA,10.7,53.83351,9.764123,Germany
PVHAS,2880,Germany,S,2596,Yesterday,32210,Uni Solar PVL-144,SMA SB2500HF-30,17.6,53.695332,9.915596,Germany
25494_Wendelkamp,9180,Germany,SW,2515,Yesterday,46383,Simax,SMA Tri 9000,19.6,53.690182,9.81191,Germany
HH5280,5280,Germany,S,3814,Yesterday,25321,Benq 330 W,SMA Sunny Boy 5000TL-21,21.4,53.667857,10.007024,Germany
PV-Vacci,6020,Germany,SW,374,Yesterday,99246,Trina VertexS+ TSM-430NEG9R.28,Fronius Symo 6.0-3-M,22.5,53.651102,9.927038,Germany
Mainhouse,3105,Germany,S,497,74 weeks ago,73422,LG,Kostal Piko MP Plus,4.2,53.887774,10.681482,Germany
RafalTrzebiez,9720,Poland,E,2643,Yesterday,49496,QCells ,Fronius Symio,24.9,53.662009,14.495736,Poland
Tylkowo,3480,Poland,S,1972,Yesterday,61706,Calyxo CX72 5W,Samil Power SolarRiver 5200TL,25.0,53.639372,20.751764,Poland
Arlington_5kW,5000,PR8,S,3354,Yesterday,36019,Seraphim,Solaredge SE5000,8.8,53.62,-3.01,United Kingdom
DL_Power,3840,PR4,SE,4641,Yesterday,3801,Sanyo HIT-N240SE,SMA Sunny Boy SB4000-TL,12.9,53.75,-2.83,United Kingdom
Mos-Eisley-Cantina,1060,PR7,W,819,Yesterday,87187,,Growatt,15.2,53.64,-2.65,United Kingdom
chris01942,4800,WN5,S,586,Yesterday,98038,Sharp NU400JB,FoxESS H1-5,15.5,53.522554,-2.749672,United Kingdom
barnacre,3120,BL6,S,596,Yesterday,93622,Unknown,Solar River,21.1,53.586638,-2.573225,United Kingdom
Kandy Roof,2280,WA10,S,3338,Yesterday,6719,Zhejiang Jiutai New Energy,Solar Edge SE3000H,21.2,53.457596,-2.777251,United Kingdom
SH House,2000,WA10,S,4361,9 weeks ago,5001,Chinese,Can't Remember,22.6,53.45,-2.75,United Kingdom
WD Solar Station,4000,L12,SW,4315,Yesterday,9831,Suntech STP250S,Solar Edge SE4000,23.2,53.43,-2.89,United Kingdom
number38,4000,WA11,SW,4358,Yesterday,973,Sungrid/SG250M6,Sunny Boy 3800,23.3,53.467927,-2.675806,United Kingdom
JT Home,5090,L4,E,1247,Yesterday,81050,JAM72S10-410MR,Solaredge SE3680H,23.7,53.43,-2.96,United Kingdom
Wellington Lodge,3864,OL15,S,1024,50 weeks ago,47847,Solarcentury,Sma sunny boy,3.6,53.64,-2.1,United Kingdom
Chestnut,3990,OL15,SE,2117,142 weeks ago,41087,LG,Trannergy,3.6,53.64,-2.1,United Kingdom
Andy B's Personal Solar System,4000,BL9,SW,603,Yesterday,100726,Sharp NU-JC400B,Fox H1-5.0E,9.9,53.59,-2.28,United Kingdom
TodmordenSolar,3000,OL14,S,1759,13 days ago,6417,Jetion,Aurora PowerOne 3.0,10.7,53.734091,-2.145381,United Kingdom
Grange Park,3500,BL7,S,4473,Yesterday,37225,JA Solar,SMA Sunny Boy 3000,17.5,53.63,-2.42,United Kingdom
WarringtonTowers,3990,SK16,NW,4689,Yesterday,2970,Suntech STP 190S-24/Ad+,SMA 40000TL-20,18.9,53.476189,-2.067096,United Kingdom
ElasticTrickery,4000,M1,S,4508,Yesterday,4587,REC Peak 250PE,SMA Sunnyboy SB5000TL,19.4,53.47,-2.23,United Kingdom
EEC Solar,3250,BL3,S,1907,142 weeks ago,37722,,Energy Monitor,20.1,53.56,-2.43,United Kingdom
PowerFlakes,6560,M32,S,465,Yesterday,97009,Longi 54c HiMo5 ,Solis 6kW Hybrid 5G,23.0,53.45,-2.3,United Kingdom
Heaton Chapel Stockport,2943,SK4,SE,2862,106 weeks ago,35498,Sunpower E20,Samil SolarRiver 3400TL-D ,23.1,53.430959,-2.171931,United Kingdom
SolarEdge 4kW UK,3990,SK6,SE,2209,Yesterday,29916,LG Neon G3 Black  mono 285w,Solar Edge 4000se 16 amp,24.5,53.418879,-2.129095,United Kingdom
Pergola@whereswally606,2600,M20,S,618,Yesterday,92092,8.33 x6 veridian x4,Eversol 3200 TL,24.8,53.42,-2.23,United Kingdom
Shed@whereswally606,4600,M20,S,1520,Yesterday,60211,Kioto KPV-200-PE (200W),Eversol-TL3600,24.8,53.42,-2.23,United Kingdom
All@whereswally606,7194,M20,S,633,Yesterday,92094,various,eversolar,24.8,53.42,-2.23,United Kingdom
Flounders,6160,WF7,EW,649,Yesterday,92881,Qcell,Enphase,11.3,53.66,-1.35,United Kingdom
Towngate,4000,S75,SE,1000,Yesterday,31518,Eco-Future ECO-250CB60,Omniksol 4k-TL,10.7,53.547035,-1.56671,United Kingdom
solarchickens,3920,S36,SE,889,96 weeks ago,5903,sharp,Sunny Boy 3000,12.9,53.523198,-1.639697,United Kingdom
Newhill,4050,WF9,SW,527,Yesterday,95645,Canadian Solar CS3W-405P,SoFar 3.6KTLM-G3,6.8,53.6,-1.32,United Kingdom
bridgehouse,2700,S74,S,2474,32 weeks ago,30474,lg monox neon,sma,2.9,53.5,-1.43,United Kingdom
Ogley Home,4000,S71,SE,2043,142 weeks ago,48322,Amerisolar,Tranenergy,5.1,53.57,-1.45,United Kingdom
Photon Converter,3990,S62,E,4476,6 days ago,46979,ASG 36W,Aurora,9.2,53.468747,-1.328407,United Kingdom
Ryton way,4000,DN4,SE,1893,123 weeks ago,22528,Canadian Solar CS6P-250P,Aurora PVI-3.6-OUTD-UK,12.2,53.498864,-1.061421,United Kingdom
24 Saffre close Winterton.,3990,DN15,S,3422,Yesterday,34279,ja solar,solar edge,4.7,53.61,-0.65,United Kingdom
StrathmoreSolar,2300,DN20,SW,464,Yesterday,96261,Hitachi,Sunny 2000,16.6,53.55,-0.5,United Kingdom
Cathprotech,4000,DN21,S,2992,Yesterday,44174,8.33 Solar,Solaredge,19.0,53.468196,-0.727466,United Kingdom
PetersPanels,4000,DN21,S,4118,2 days ago,21730,PhonoSolar Onyx 190-210,SMA 4000TL-21,19.4,53.477701,-0.58665,United Kingdom
S8utt,3960,DN21,S,4099,Yesterday,2717,SHARP ND220E1F,SMA 4000TL-20,19.5,53.477345,-0.586953,United Kingdom
ZeeBos,30,9164,N,1173,165 weeks ago,48376,,Energy Monitor,21.3,53.4472,5.7991,Netherlands
Haus Leuchtturm,3150,Germany,SW,3379,Yesterday,53411,Mage Solarenergie,SMA,8.0,53.609745,7.167056,Germany
PV WHV,6600,Germany,SE,1915,5 weeks ago,63864,IBC Solar MONO 300ZX,Fronius Symo Hybrid,11.2,53.547351,8.076547,Germany
ADD16_Haus,10080,Germany,S,4223,Yesterday,24799,BYD,SMA TRP 10000TL,13.4,53.519772,8.044334,Germany
hms13a,4930,Germany,S,3077,Yesterday,42616,Aleo S19 mono,E3DC,11.0,53.546044,8.671327,Germany
WedelSolar,1000,Germany,S,1844,107 weeks ago,49197,,PIP2424MSXE,18.1,53.570924,9.706445,Germany
ME1,1170,Germany,N,3758,Yesterday,21149,Skybasesolar SK125-M-72-195 ,AEConversion,24.7,53.558959,9.80577,Germany
Brombeerhaus,10080,Germany,S,577,Yesterday,97660,Solarwatt HC Vision 2.0,Kaco Blueplanet 10.0 NX3 M2,4.3,53.63343,10.116413,Germany
Frohnau012,5400,Germany,S,572,Yesterday,53508,,SMA Sunny Boy 5000,6.9,53.611062,10.087893,Germany
PV_Schuppen,360,Germany,EW,435,Yesterday,97671,Yingli YL 180P,Hoymiles HM-300,11.2,53.537747,10.187389,Germany
PV_Veranda,380,Germany,S,476,Yesterday,96824,Longi LR4-60HPH,Hoymiles HM-300,11.2,53.537744,10.187556,Germany
S7,400,Germany,S,571,Yesterday,94633,,Energy Monitor,14.1,53.566414,10.006485,Germany
Rebellenstrom,260,Germany,S,1254,Yesterday,72613,GreenAkku,Victron Phoenix,16.4,53.613284,9.936447,Germany
CarlosPVAnlage,770,Germany,S,389,Yesterday,98887,Trina Vertex,Hoymiles HM600,15.3,53.616517,10.67899,Germany
SchuppenPV,500,Germany,SE,1913,74 weeks ago,39445,NoName,Enecsys,21.9,53.545869,11.926448,Germany
otlowiec,11220,Poland,SE,1265,Yesterday,80724,Q-cell,FRONIUS SYMO 12.5,3.5,53.64258,18.942297,Poland
Woodyhaven,6000,Ireland,S,676,143 weeks ago,68909,Peimar SG300M FB,Trannergy SGN 6600TL,16.0,53.27879,-6.899016,Ireland
Clay Farm,1140,Ireland,S,1047,2 days ago,70872,,Trannergy,12.3,53.322872,-6.246938,Ireland
A Rated Rogan,5760,Ireland,S,399,Yesterday,98042,Longi HI-MO5M,Solis 5kW Hybrid,14.0,53.307647,-6.254482,Ireland
PenBeach,4000,LL30,S,3727,Yesterday,27204,,SunnyBoy,17.9,53.31,-3.81,United Kingdom
Wirral suntrap,4000,CH47,SE,4622,2 days ago,3651,hyundai HiS-S250MG,SMA Sunny Boy 4000TL,8.5,53.404637,-3.15485,United Kingdom
guffittssun,2500,CH47,SE,3532,157 weeks ago,4398,hyundai his-s250mg,sma sunny boy sb2500hf,8.7,53.39,-3.16,United Kingdom
Sunbeam Collector,3840,LL19,SE,2047,Yesterday,61856,REC Solar,Trannergy,14.7,53.319298,-3.417788,United Kingdom
brynawelon,3840,CH8,SE,1141,119 weeks ago,57004,Enecsys,unknown,16.1,53.28,-3.24,United Kingdom
Helygain,3990,CH8,SW,3110,Yesterday,4113,Suntech STP190S-Ad+,SMA Sunny Boy 4000TL-20,22.7,53.225465,-3.190047,United Kingdom
Fotoman,3995,M46,S,4607,2 days ago,5351,conergy,Sunny Boy 4000TL,4.8,53.52,-2.49,United Kingdom
sunbeans,3760,M46,SW,2609,2 days ago,51677,sanyo,sunny boy 4000tl,4.8,53.52,-2.49,United Kingdom
Home Solar WA3,3850,WA3,SW,1461,Yesterday,64143,Unknown,SMA ,6.9,53.480832,-2.609022,United Kingdom
Croft house,4000,WA3,EW,3714,Yesterday,25802,Sunworld module plus,Enphase micro inverter,9.5,53.45,-2.54,United Kingdom
Locking Stumps Solar,3430,WA3,SW,2034,91 weeks ago,21537,Canadian Solar ND-R245A6,SMA Sunny Boy SB3000TLST-21,9.5,53.45,-2.54,United Kingdom
Robins Updated system,10730,WA5,S,1771,Yesterday,72255,seg etc,Solaredge,8.5,53.39,-2.63,United Kingdom
Salisbury,3900,L16,SW,1450,Yesterday,84237,,Solar River 4000TL-D,9.6,53.39,-2.88,United Kingdom
Baz - Salisbury,9840,L16,S,625,Yesterday,74139,Longi/LR5-54HPB-410M,Solax,9.6,53.390022,-2.880392,United Kingdom
Bisham,3900,WA7,E,4512,Yesterday,53147,Phonosolar,SMA Sunny Boy 4000TL,10.4,53.342,-2.6659,United Kingdom
RandDisarray,3430,L24,S,3816,48 weeks ago,4926,REC 245PE,SMA SB3000-TL20,10.7,53.330518,-2.794445,United Kingdom
GivEnergy-01,4800,WA7,SW,379,23 weeks ago,94746,Longi,GivEnergy Giv-HY5.0 Gen 2,10.7,53.33,-2.7,United Kingdom
Beshoveled,3200,WA2,S,457,Yesterday,94758,Sharp,SMA,11.1,53.41,-2.58,United Kingdom
BlackBear,4680,WA4,SE,1383,2 days ago,78082,Sunpower Maxeon3,SolarEdge,12.1,53.375342,-2.581136,United Kingdom
The Whitehouse,4000,M33,SW,1904,142 weeks ago,45465,Amerisolar,Trannergy,3.3,53.42,-2.32,United Kingdom
alpriest,5600,WA13,SE,647,Yesterday,103152,JA Solar,FoxESS,8.2,53.378516,-2.469692,United Kingdom
THOR,3000,WA16,SW,3282,168 weeks ago,6106,Suntech STP250S-Wd,SMA 3000TL-20,9.5,53.357377,-2.276768,United Kingdom
Cheadle Hulme 3.8,3840,SK8,SE,3720,Yesterday,28300,Panasonic VBHN240SJ25,Solar Edge 3680W,12.2,53.38,-2.2,United Kingdom
TopRoadRoof,4000,WA6,W,1313,Yesterday,48111,sharp,sma sunny boy,11.7,53.27,-2.72,United Kingdom
GardenRoad,3950,WA16,N,785,14 weeks ago,88059,SunPower Max 395,Solaredge,12.5,53.3,-2.37,United Kingdom
mcsbowling,3430,CH65,N,3702,Yesterday,15428,Suntech,SMA Sunny Boy 4000,11.2,53.27,-2.9,United Kingdom
cupid stunt,3600,SK6,SW,4414,15 days ago,6378,Suntech Hi Pluto ADE 200,Sunnyboy 3600TL,16.0,53.414531,-2.076824,United Kingdom
Zappy,4680,SK6,E,551,Yesterday,94885,TW Solar,Enphase,16.4,53.4,-2.08,United Kingdom
Tony Hoyle,2500,SK6,S,2104,92 weeks ago,30248,PS-250-P-20/U,Solaredge,16.4,53.4,-2.08,United Kingdom
Test sk,300,SK6,S,960,53 weeks ago,60479,unkown,unkown,16.4,53.4,-2.08,United Kingdom
Papa Bear Power,3120,SK12,SE,1677,29 weeks ago,4761,Sungrid SG-260P6,SMA SunnyBoy SB3000HF,18.7,53.35,-2.09,United Kingdom
chez_braeside,4000,S32,W,3549,Yesterday,22655,renesolar,aurora,19.8,53.279561,-1.659538,United Kingdom
SunnyPeacs,5760,SK17,S,1260,90 weeks ago,64924,SunpowerSPR-X22-360,Solaredge SE5000H,20.4,53.24,-1.87,United Kingdom
JST200  Inverter,3120,SK12,SW,3531,131 weeks ago,4276,Sungrid SG-260P6,SMA SunnyBoy SB3000HF,20.7,53.349118,-2.122174,United Kingdom
JST200  Smart PV,3120,SK12,SW,3787,Yesterday,4430,Sungrid SG-260P6,SMA SunnyBoy SB3000HF,20.7,53.349155,-2.122208,United Kingdom
Zarch,5100,S6,SW,2057,Yesterday,58867,JA Solar,SolarEdge 3680,21.8,53.4,-1.51,United Kingdom
Sunnybank,3990,S6,SE,3004,Yesterday,41820,JA Solar Percium,Solar Edge,21.8,53.4,-1.51,United Kingdom
Too Little Power,10620,S6,S,2189,Yesterday,67190,Ja solar mono,Solaredge,21.8,53.4,-1.51,United Kingdom
PVs,3720,SK4,SW,2162,Yesterday,59727,,Energy Monitor,22.2,53.41,-2.17,United Kingdom
SMA Solar Baby,3360,SK4,SW,3335,97 weeks ago,80926,Sanyo HIT-N240SE10,SMA Sunny Boy 3000,22.2,53.41,-2.17,United Kingdom
SuperDuperPower,2340,S11,S,4738,Yesterday,41241,,SMA Sunny Boy,23.3,53.36,-1.5,United Kingdom
Bauhinia,2250,S11,S,1449,150 weeks ago,47309,Unknown,SMA Sunny Boy 2500,23.3,53.36,-1.5,United Kingdom
Harworth Solar Edge,3000,DN11,SE,3477,Yesterday,33242,CONERGY PX250P,SOLAR EDGE SE-3000,3.8,53.45,-1.08,United Kingdom
Chadwicks Towers,3995,DN22,S,4270,Yesterday,10020,Sanyo HIT-N235SE10,SMA Sunny Boy 4000TL-21,17.2,53.32,-0.92,United Kingdom
TooMuchPower,3840,S20,SW,4568,Yesterday,4483,HIT-240HDE4,SMA 4000TL,17.7,53.338508,-1.340988,United Kingdom
The gaff,9960,S20,SE,443,Yesterday,97569,Longi,Solaredge,18.7,53.33,-1.35,United Kingdom
nacnudus,3500,LN1,S,668,72 weeks ago,79549,Unknown,SamilPower SolarRiver 3400TL-D,22.9,53.25,-0.58,United Kingdom
H2O verbruik,1950,8899,N,3232,Yesterday,13760,aqua,aqua,6.7,53.3857,5.3033,Netherlands
TOW,10800,8881,S,3061,Yesterday,44856,Suntech STP270,Solar Edge SE10K,13.3,53.3591,5.2148,Netherlands
Sexbierum,3410,8855,N,1566,Yesterday,73423,,Energy Monitor,23.8,53.2167,5.4833,Netherlands
Dienst,15170,8855,S,1282,Yesterday,80446,Longi,Solaredge,23.8,53.2167,5.4833,Netherlands
Schapenhuis,3260,9078,S,1601,8 weeks ago,70744,Trina Vertex 395  Jinko JMK240,GrowattTL 2.5-XE & TL1.5-X  ,24.1,53.309536,5.693671,Netherlands
Stasjon 1,5400,8855,SE,797,Yesterday,89505,Longi,Enphase IQ7+,24.1,53.214678,5.485826,Netherlands
Labarca,4000,9172,SE,1731,175 weeks ago,34250,Axitec,Growatt  3600MTL,11.0,53.344241,5.81771,Netherlands
BlackmoreSE2,7900,9102,SE,1079,Yesterday,84488,Solar,SolarEdge SE5000,11.3,53.3333,6.0,Netherlands
BlackmoreSE3,5110,9102,SE,849,Yesterday,88620,Yinco Solar,SE3000,11.3,53.3333,6.0,Netherlands
2x12 Panasonic Kuro East-West,7800,9102,E,1646,Yesterday,65826,Panasonic VBHN325KJ01 HIT KURO,SMA Tripower STP5.0-3AV-40 ,11.3,53.3333,6.0,Netherlands
Dokkum36,5180,9102,SE,370,5 days ago,99262,JaSolar,SolarEdge,11.3,53.3333,6.0,Netherlands
Hok,1800,9100,S,1098,Yesterday,84281,Longi Solar LR4-72HPH-450,Goodwe GW2000-XS,11.3,53.3333,6.0,Netherlands
Justin2k5 Oost / west,7920,9101,EW,720,Yesterday,91006,Jinko,SAJ 6kw,11.3,53.3333,6.0,Netherlands
SolarEdge TDW,3200,9103,SW,1501,Yesterday,75268,Eurener All Black Turbo 320,SolarEdge SE3500H,11.3,53.3333,6.0,Netherlands
sinnepanelen 1,3150,9103,SW,818,Yesterday,88710,yingly,sma 3000,11.3,53.3333,6.0,Netherlands
sinnepaneel,3255,9103,S,3084,120 weeks ago,20346,Frans,sma3000,11.3,53.3333,6.0,Netherlands
BlackmoreALL,17784,9102,W,1934,Yesterday,64866,JaSolar Hareon,SolarEdge + Fronius,11.3,53.3333,6.0,Netherlands
BlackmoreFR,4770,9102,NW,1901,Yesterday,64864,JaSolar,Fronius,11.3,53.3333,6.0,Netherlands
BlackmoreSE,3724,9102,SE,847,156 weeks ago,64863,Hareon,SolarEdge SE3500,11.3,53.3333,6.0,Netherlands
Zwaluwstraat 1c,9130,9101,EW,541,36 weeks ago,87308,PHONO SOLAR (PS415M4-22/WH),Fronius Symo 7.0-3-M,12.0,53.330415,6.010916,Netherlands
Dak West,2220,9100,W,676,Yesterday,93876,dmegc 370,APSystems  DS3,12.0,53.325839,5.998621,Netherlands
Justin2k5 undr. construction,4940,9101,W,3582,103 weeks ago,9554,Jinko,Mastervolt xs3200,13.0,53.315762,5.996891,Netherlands
Cashorn-PV,4000,9978,S,2705,175 weeks ago,26613,Ningbo Ulica,SMA sunnyboy 4000TL-21,5.9,53.3883,6.3611,Netherlands
Carport energy,5800,9978,EW,2099,Yesterday,59820,JA solar JAM6(K)(BK)-60-290/PR,Solar Edge SE-5K,5.9,53.3883,6.3611,Netherlands
Garnaal,6660,9971,E,815,149 weeks ago,66906,LG,SolarEdge,7.6,53.3584,6.333745,Netherlands
Zonnepark Helios INV1.1,245565,9979,E,946,3 days ago,86724,Longi LR5-72HPH-535M,SMA SHP150-20,9.3,53.3431,6.3371,Netherlands
Lukkien Solar,2700,9974,SW,1592,61 weeks ago,62973,DMEGC300wp full black,GoodWe,9.3,53.3392,6.3042,Netherlands
DeSnik40,3540,9974,SW,1517,Yesterday,71853,Trina Solar,SolarEdge SE3500 HD-wave,9.3,53.3392,6.3042,Netherlands
SolarEenrum,2480,9967,SE,709,131 weeks ago,72250,Suntech STP310S,SolarEdge 3000 HD-Wave,12.8,53.3625,6.4583,Netherlands
YoulessEenrum,50,9967,N,600,147 weeks ago,72247,,Energy Monitor,12.8,53.3625,6.4583,Netherlands
Maxeon 6,10440,9125,S,2278,Yesterday,50088,Solarpower,enphase,5.1,53.3308,6.0617,Netherlands
Behemoth,5440,9104,S,886,Yesterday,59472,Longi Solar LR6-60HPH-320M,Growatt 4000TL3-S,2.3,53.2905,5.9978,Netherlands
LiveLog,540,9104,SW,1717,162 weeks ago,30094,JA Solar JAP6-60-270,APSolar YC500i,2.5,53.288666,6.001046,Netherlands
Noorderlicht,3000,9114,S,1610,Yesterday,72721,Eurener,Goodwe,3.0,53.2959,6.0461,Netherlands
Soladin systeem,604,9296,S,1167,Yesterday,60314,NUON SE-151M,MasterVolt Soladin 600,6.3,53.278638,6.086211,Netherlands
Zonnepanel foarwei 16,7680,9298,S,930,84 weeks ago,74907,JINKO,SAJ,7.0,53.2622,6.0754,Netherlands
Westra Munnekezijl,2850,9853,SW,1238,144 weeks ago,58039,Qcells,Trannergy SGN3000TL,4.4,53.3,6.2667,Netherlands
BruneelKollum,11840,9291,EW,2403,Yesterday,28005,Jinko,Solar Edge,4.7,53.2833,6.15,Netherlands
PowerZone,3480,9299,S,1038,145 weeks ago,49963,JA Solar Mono Percium 290 WP,Growatt 3000 MTLS,6.1,53.2739,6.1355,Netherlands
De Vries Power Plant,5120,9294,S,2156,Yesterday,60328,LG Neon Full Black,Fronius Symo 5.0-3-M,6.1,53.290629,6.118162,Netherlands
KL23,16280,9297,EW,485,Yesterday,96463,Canadian Solar CS3L-370MS,SolarEdge SE12.5K,1.3,53.263313,6.102562,Netherlands
furian,5040,9285,S,1472,Yesterday,76258,Q cells 315,Solaredge SE4000H,2.6,53.2517,6.1448,Netherlands
Sedum,5300,9285,SE,4117,Yesterday,75991,Yingli,SMA Sunny Boy 5000-TL21,2.9,53.248679,6.149855,Netherlands
Hedzer,8640,9299,EW,1094,Yesterday,83846,Denim,Solar Edge se5k,3.7,53.2451,6.050801,Netherlands
RW17,4130,9288,S,1203,Yesterday,81959,Comfort,SolarEdge 3500,4.5,53.2126,6.0921,Netherlands
